ukhoId,ukhoName,ukhoLocation,gmaAddress,gmaLatitude,gmaLongitude,gmaCity,gmaCountry,gmaStatus
5576,`Rabuso Creek,Louisiade Archipelago,,,,,,not_found
7753,Aburatsu,Japan Kyushu East Coast,"Aburatsu, Nichinan, Miyazaki Prefecture 887-0001, Japan",31.5835837,131.4041797,Nichinan,Japan,done
1717,A CORUNA,Spain,"A Coruña, Spain",43.3623436,-8.4115401,A Coruña,Spain,done
7936,Aburatsubo,Japan Honshu South Coast,"Aburatsubo-wan, Misakimachi Mutsuai, Miura, Kanagawa Prefecture 238-0221, Japan",35.15,139.6333333,Miura,Japan,done
4276A,Abadan,Iran,"Abadan, Khuzestan Province, Iran",30.347296,48.2934004,Abadan,Iran,done
3308A,Acadia Cove,Labrador,"Acadia Cove, Niceville, FL 32578, USA",30.493808,-86.417874,Niceville,United States,done
6760,Abaiang Atoll,Kiribati,"Abaiang Airport, Abaiang, Kiribati",1.670833,173.30417,Abaiang,Kiribati,done
9444,Acajutla,Salvador,"Acajutla, El Salvador",13.5957,-89.82708939999999,Acajutla,El Salvador,done
8117,Abashiri,Japan Hokkaido North-East Coast,"Abashiri, Hokkaido Prefecture, Japan",44.0206319,144.2733983,Abashiri,Japan,done
9432,Acapulco,Mexico,"Acapulco, Guerrero, Mexico",16.8531086,-99.8236533,Acapulco,Mexico,done
5930,Abbot Point,Australia East Coast,"Abbot Point, Bowen QLD 4805, Australia",-19.9078861,148.0846726,Bowen,Australia,done
2243,Acarau,Brazil,"Acaraú - Santa Maria, Acaraú - CE, Brazil",-2.8880609,-40.1186635,Acaraú,Brazil,done
6756,Abemama,Kiribati,"Abemama Island, Kiribati",0.4243523,173.9150503,,Kiribati,done
3626,Accra,Ghana,"Accra, Ghana",5.6037168,-0.1869644,Accra,Ghana,done
0482A,Aberdaron,Wales,"Aberdaron, Pwllheli LL53, UK",52.80472899999999,-4.711514999999999,Aberdaron,United Kingdom,done
4253F,AD DAMMAM (K.A.A.P.),Saudi Arabia,Dammam Saudi Arabia,26.3926665,49.9777136,Dammam,Saudi Arabia,done
244,ABERDEEN,Scotland,"Aberdeen, UK",57.149717,-2.094278,Aberdeen,United Kingdom,done
3526,Ad-Dakhla (Villa Cisneros Bar),Western Sahara,"100، Boulevard Mohammed V, Dakhla 73000",23.693993,-15.933476,Dakhla,,done
9222,Aberdeen (Grays Harbour),United States,"Aberdeen, WA, USA",46.9753708,-123.8157218,Aberdeen,United States,done
3628,Ada Panya (Riverside),Ghana,,,,,,not_found
486,Aberdovey,Wales,"Aberdyfi, UK",52.543963,-4.046093,Aberdyfi,United Kingdom,done
8954,Adams (Welcome) Harbour,Canada,,,,,,not_found
0488A,Aberporth,Wales,"Aberporth, UK",52.1325069,-4.544851,Aberporth,United Kingdom,done
8944,Addenbroke Island,Canada,"Addenbroke Island, Central Coast A, BC, Canada",51.6073765,-127.8440645,,Canada,done
487,Aberystwyth,Wales,"Aberystwyth, UK",52.41530299999999,-4.08292,Aberystwyth,United Kingdom,done
4410,Addoo Atoll,Maldive Islands,"Addu Atholhu, Addu City, Maldives",-0.6333333,73.1666667,Addu City,Maldives,done
3615,ABIDJAN ENTRANCE,Cote D'Ivoire,,,,,,not_found
6289,Adele Island,Australia North Coast,"Adele Island, Western Australia, Australia",-15.5273475,123.1548332,,Australia,done
2020B,Ablation Lake,Antarctica,"Ablation Lake, Antarctica",-70.816667,-68.43333299999999,,Antarctica,done
4155,ADEN,Republic of Yemen,"Aden, Yemen",12.7854969,45.0186548,Aden,Yemen,done
1699,Abra De Bilbao,Spain,"Areatza Kalea, 5, 48005 Bilbo, Bizkaia, Spain",43.2597511,-2.9228624,Bilbo,Spain,done
1839,Adjim Bar,Tunisia,"Djerba Ajim, Tunisia",33.7214083,10.742805,,Tunisia,done
4213,Abu Al Abyad,United Arab Emirates,Abu Al Abyad - Abu Dhabi - United Arab Emirates,24.2016058,53.80202360000001,,United Arab Emirates,done
2040,Admiralty Bay,Antarctica,"Admiralty Bay, Antarctica",-62.166667,-58.416667,,Antarctica,done
4255A,Abu Ali,Saudi Arabia,"Abu 'Ali, Iran",30.493889,50.21472199999999,Abu 'Ali,Iran,done
6307,Adolphus Island,Australia North Coast,"Adolphus Island, Western Australia, Australia",-15.1184204,128.1582923,,Australia,done
4149,Abu Ali Islands,Republic of Yemen,"Abu Ali Islands, Yemen",14.0795542,42.82113,,Yemen,done
8485,Adugak Island,Aleutian Islands,"Adugak Island, Alaska, USA",52.90828579999999,-169.1587942,,United States,done
4254A,Abu Sa'fah,Saudi Arabia,"Abu Sayfah, Abu Saifah, Markaz Ad Delingat, El Beheira Governorate, Egypt",30.86013819999999,30.5289205,Abu Sayfah,Egypt,done
2066,Adventure Sound,Falkland Islands,"Adventure Sound, FIQQ 1ZZ, Falkland Islands (Islas Malvinas)",-52.09999999999999,-59.00000000000001,,Falkland Islands (Islas Malvinas),done
3518,AGADIR,Morocco,"Agadir 80000, Morocco",30.4277547,-9.5981072,Agadir,Morocco,done
7925,Akabane,Japan Honshu South Coast,"Akabane, Kita, Tokyo 115-0045, Japan",35.7799338,139.7205279,Kita,Japan,done
3961,Agalega Islands,Mauritius Group,"Agalega Islands, Mauritius",-10.4,56.6166667,,Mauritius,done
8057,Akasaki,Japan Honshu West Coast,"Akasaki, Kotoura, Tohaku District, Tottori Prefecture 689-2501, Japan",35.5135455,133.6352327,Kotoura,Japan,done
5532,Agats (Teluk Flamingo),Papua,,,,,,not_found
7844,Akashi,Japan Honshu South Coast,"Akashi, Hyogo Prefecture, Japan",34.6431066,134.9971787,Akashi,Japan,done
4981,Aguasa Bay,Philippine Islands,,,,,,not_found
3654,Akassa,Nigeria,"Akassa, Nigeria",4.32973,6.062118,Akassa,Nigeria,done
3252B,Agvik Island,Labrador,,,,,,not_found
8029,Akita,Japan Honshu West Coast,"Akita, Akita Prefecture, Japan",39.7199218,140.1035697,Akita,Japan,done
6570,Ahe,Tuamoto (Low) Archipelago,"Ahe, French Polynesia",-14.5011824,-146.3153013,,French Polynesia,done
8106,Akkeshi,Japan Hokkaido East Coast,"Akkeshi, Akkeshi District, Hokkaido Prefecture, Japan",43.0518705,144.8473601,Akkeshi,Japan,done
6384,Ahipara Bay,New Zealand North Island,"22 Reef View Rd, Ahipara 0410, New Zealand",-35.1754512,173.1395055,Ahipara,New Zealand,done
4487,Akra Semaphore,India East Coast,,,,,,not_found
5525,Aiduna,Papua,"Aiduna, Aindua, Mimika Bar. Jauh, Kabupaten Mimika, Papua, Indonesia",-4.436192,135.256805,Aiduna,Indonesia,done
822,Akranes,Iceland,"Akranes, Iceland",64.3219244,-22.0702847,Akranes,Iceland,done
5591,Aigura Point,Papua New Guinea,,,,,,not_found
1984A,Akrotiri,Cyprus,"Thera 847 00, Greece",36.3517952,25.403447,Thera,Greece,done
5529,AIKA,Papua,"Ajka, Hungary",47.1036349,17.5517783,Ajka,Hungary,done
7690,Akune,Japan Kyushu West Coast,"Akune, Kagoshima Prefecture, Japan",32.0144696,130.1927734,Akune,Japan,done
6771,Ailinglapalap Atoll,Marshall Islands,"Ailinglaplap Atoll, RMI",7.399999999999999,168.75,,Marshall Islands,done
849,Akureyri,Iceland,"Akureyri, Iceland",65.68849209999999,-18.1261693,Akureyri,Iceland,done
7837,Aioi,Japan Honshu South Coast,"Aioi, Hyogo Prefecture, Japan",34.8036006,134.4680664,Aioi,Japan,done
8497,Akutan Island,Aleutian Islands,"Akutan Island, Alaska, USA",54.1154942,-165.9392546,,United States,done
4826,Air Bangis,Sumatera South West Coast,"Aia Bangih, Beremas River, West Pasaman Regency, West Sumatra, Indonesia",0.2770603,99.34511180000001,,Indonesia,done
4119,Al `Aqabah,Jordan,"Aqaba, Jordan",29.5320522,35.0063209,Aqaba,Jordan,done
6603,Aitutaki,Cook Islands South,"Aitutaki, Cook Islands",-18.8579523,-159.7852843,,Cook Islands,done
4179,Al Ashkhara,Oman,"Al Ashkharah, Oman",21.851454,59.5671176,Al Ashkharah,Oman,done
1794,Ajaccio,Corsica,"Ajaccio, France",41.919229,8.738635,Ajaccio,France,done
4271,AL BASRAH,Iraq,"Basrah, Iraq",30.5081033,47.7834888,Basrah,Iraq,done
2073,Ajax Bay,Falkland Islands,"E Ajax Dr, Suttons Bay, MI 49682, USA",44.9608449,-85.6347419,Suttons Bay,United States,done
4268A,Al Basrah (Al Bakr) Terminal,Iraq,,,,,,not_found
8023,Ajigasawa,Japan Honshu West Coast,"Ajigasawa, Nishitsugaru District, Aomori Prefecture, Japan",40.779913,140.2086952,Ajigasawa,Japan,done
4253B,Al Budayyi,Bahrain,"Budaiya, Bahrain",26.2109291,50.4489065,Budaiya,Bahrain,done
7933,Ajiro,Japan Honshu South Coast,"Ajiro, Atami, Shizuoka Prefecture 413-0103, Japan",35.0484388,139.0915361,Atami,Japan,done
4269,AL FAW,Iraq,"Faw, Iraq",30.1603332,48.19955909999999,Faw,Iraq,done
8056,Ajiro (Honshu W Coast),Japan Honshu West Coast,,,,,,not_found
4262A,Al Fintas,Kuwait,"Fintas, Kuwait",29.1696666,48.1175767,Fintas,Kuwait,done
4204,AJMAN,United Arab Emirates,Ajman - United Arab Emirates,25.4052165,55.5136433,Ajman,United Arab Emirates,done
4170,Al Hallaniyah,Oman,"Al Hallaniyah, Oman",17.5041962,56.03614690000001,,Oman,done
4129,Al Hasani,Saudi Arabia,"9 Lynwood Rd, London W5 1JQ, UK",51.52927,-0.2997344,,United Kingdom,done
2077A,Albemarle,Falkland Islands,"Albemarle, NC, USA",35.3501426,-80.2000578,Albemarle,United States,done
4146A,Al Hudaydah,Republic of Yemen,"Al Hudaydah, Yemen",14.7909118,42.9708838,Al Hudaydah,Yemen,done
114,Albert Bridge,England,"Albert Bridge, London SW3, UK",51.4822293,-0.1666746,,United Kingdom,done
1992,AL ISKANDARIYAH (ALEXANDRIA),Egypt,"Alexandria, Alexandria Governorate, Egypt",31.2000924,29.9187387,Alexandria,Egypt,done
3026,Alberton,Canada,"Alberton, South Africa",-26.3223942,28.1239717,Alberton,South Africa,done
4253C,Al Jasser Island,Bahrain,,,,,,not_found
5923,Albino Rock,Australia East Coast,"Albino Rock, Queensland 4805, Australia",-18.8333333,146.7333333,,Australia,done
4202,Al Jazeera Port,United Arab Emirates,Al Jazeera - Ras al Khaimah - United Arab Emirates,25.7131449,55.8016168,,United Arab Emirates,done
1741A,Alcochete,Portugal,"Alcochete, Portugal",38.7561726,-8.9598931,,Portugal,done
4239A,Al Jazirah Al Aliyah,Qatar,جزيرة العالية، الدوحة، Qatar,25.4063889,51.5655556,الدوحة,Qatar,done
3978,Aldabra Islands,Seychelles,"Aldabra, Seychelles",-9.4236984,46.3432781,,Seychelles,done
4255,AL JUBAYL,Saudi Arabia,Al Jubail Saudi Arabia,26.9597709,49.5687416,Al Jubail,Saudi Arabia,done
139,Aldeburgh,England,"Aldeburgh, UK",52.155357,1.600446,Aldeburgh,United Kingdom,done
4189A,Al Khaburah,Oman,"Al Khaburah, Oman",23.9628375,57.095682,Al Khaburah,Oman,done
9151,Aleck Bay,United States,"Aleck Bay, Washington 98261, USA",48.42721299999999,-122.8593864,,United States,done
4247E,Al Khraij,Qatar,Al Kharj Saudi Arabia,24.1455367,47.3119448,Al Kharj,Saudi Arabia,done
3407A,Alert,Canadian Arctic,"Alert, IN 47283, USA",39.16032999999999,-85.6783093,Alert,United States,done
4253E,Al Khubar,Saudi Arabia,Al Khobar Saudi Arabia,26.2171906,50.1971381,Al Khobar,Saudi Arabia,done
9016,Alert Bay,"Canada, Vancouver Island","Alert Bay, BC, Canada",50.58448550000001,-126.9254093,Alert Bay,Canada,done
4170B,Al Lakbi,Oman,,,,,,not_found
1233,ALESUND,Norway,"Alesund, Norway",62.47222840000001,6.149482,Alesund,Norway,done
4194A,Al Lima,Oman,"28 Lowell Rd #3&4, Hudson, NH 03051, USA",42.7701211,-71.4118003,Hudson,United States,done
1740C,Alfeite,Portugal,"2810 Almada, Portugal",38.6653401,-9.146785699999999,Almada,Portugal,done
4162,Al Mukalla,Republic of Yemen,"Al Mukalla, Yemen",14.5404328,49.127197,Al Mukalla,Yemen,done
836,Alftafjordhur,Iceland,,,,,,not_found
4151,Al Mukha,Republic of Yemen,"Mocha, Yemen",13.3203021,43.2473146,Mocha,Yemen,done
1769,Algeciras,Spain,"Algeciras, Cádiz, Spain",36.1407591,-5.456233,Algeciras,Spain,done
4139,Al Qunfudhah,Saudi Arabia,Al Qunfudhah Saudi Arabia,19.1281398,41.0787392,Al Qunfudhah,Saudi Arabia,done
1774,Alicante,Spain,"Alicante, Spain",38.3459963,-0.4906855,Alicante,Spain,done
4098,Al Qusayr,Egypt,"Al Qusayr, Syria",34.5082501,36.5823944,Al Qusayr,Syria,done
2298,Aliki,Guyana,"Aliki 844 00, Greece",36.998525,25.1367165,Aliki,Greece,done
4238,Al Wakrah,Qatar,"Al Wakrah, Qatar",25.1659314,51.5975524,Al Wakrah,Qatar,done
4394,Alleppey,India West Coast,"Alappuzha, Kerala, India",9.498066699999999,76.3388484,Alappuzha,India,done
9309,Alameda,United States,"Alameda, CA, USA",37.7652065,-122.2416355,Alameda,United States,done
2637,Alligator Reef,United States,"North, Atlantic Ave, Ocean Twp, United States",24.8517748,-80.6188171,Ocean Township,United States,done
6212,ALBANY,Australia South Coast,"Albany, NY, USA",42.6525793,-73.7562317,Albany,United States,done
0109E,Allington Lock,England,"River Medway, United Kingdom",51.2956595,0.5062679999999999,,United Kingdom,done
2747,Albany (Hudson River),United States,"Albany, NY, USA",42.6525793,-73.7562317,Albany,United States,done
0229A,Alloa,Scotland,"Alloa FK10, UK",56.114073,-3.791896,Alloa,United Kingdom,done
1773A,Almeria,Spain,"Almería, Spain",36.86699970000001,-2.3221622,,Spain,done
2877,Amherst Harbour,Canada,"1895 Cooper Foster Park Rd #101, Amherst, OH 44001, USA",41.4179651,-82.1993656,Amherst,United States,done
5583,Alotau,Louisiade Archipelago,"Alotau, Papua New Guinea",-10.3157027,150.4587795,Alotau,Papua New Guinea,done
477,Amlwch,Wales,"Amlwch LL68, UK",53.410658,-4.345693,Amlwch,United Kingdom,done
1595A,Alpha-Baie De Seine,France,,,,,,not_found
3443,Ammassalik,Greenland East Coast,"Tasiilaq, Greenland",65.6134561,-37.6335696,Tasiilaq,Greenland,done
3972A,Alphonse Island,Seychelles,"Alphonse Atoll, Seychelles",-7.008610999999999,52.72944400000001,,Seychelles,done
5384,Ampenan,Lombok,"Ampenan, Mataram City, West Nusa Tenggara, Indonesia",-8.570530699999999,116.0857155,,Indonesia,done
1449,Alte Weser Lighthouse,Germany,,,,,,not_found
1425,Amrum-Hafen,Germany,"Mittelstraße 24, 25946 Wittdün auf Amrum, Germany",54.62625,8.39351,Wittdün auf Amrum,Germany,done
4799,Alur Sembilan,Sumatera North East Coast,,,,,,not_found
2373,AMUAY,Venezuela,"Amuay, Falcón, Venezuela",11.776897,-70.2423207,Amuay,Venezuela,done
2579,Alvarado,Mexico (Gulf),"Alvarado, TX 76009, USA",32.4065312,-97.2116782,Alvarado,United States,done
8478,Amukta Island,Aleutian Islands,"Amukta Island, Alaska, USA",52.4881626,-171.2744513,,United States,done
1255,Alverstraumen,Norway,"Alverstraumen, Norway",60.57374530000001,5.2237795,Alverstraumen,Norway,done
7157,AN HSU (BAY ISLAND),China,"898 Oyster Bay Rd, East Norwich, NY 11732, USA",40.8466691,-73.5352858,East Norwich,United States,done
4543,Ama,Burma,"Ama, LA 70031, USA",29.9521491,-90.2964674,Ama,United States,done
7182,An-P'ing Kang,T'ai-Wan,"An Ping Lu, Yuhang Qu, Hangzhou Shi, Zhejiang Sheng, China",30.4107856,120.2878864,Hangzhou Shi,China,done
7846,Amagasaki,Japan Honshu South Coast,"Amagasaki, Hyogo Prefecture, Japan",34.7337339,135.4063757,Amagasaki,Japan,done
9149,Anacortes,United States,"Anacortes, WA 98221, USA",48.51260449999999,-122.6126718,Anacortes,United States,done
9449,Amapala,Honduras,"Amapala, Honduras",13.2916538,-87.65194729999999,Amapala,Honduras,done
8369,Anadyr,Siberia,"Anadyr, Chukotka Autonomous Okrug, Russia, 689000",64.7336613,177.4968266,Anadyr,Russia,done
4350,Ambheta,India West Coast,"Ambheta, Gujarat 395005, India",21.2614103,72.743704,Ambheta,India,done
7862,Anaga Ura,Japan Honshu South Coast,,,,,,not_found
5625,Ambitle Island,Bismarck Archipelago,"Ambitle Island, Papua New Guinea",-4.0796535,153.6160235,,Papua New Guinea,done
8044B,Anamizu,Japan Honshu West Coast,"Anamizu, Hosu District, Ishikawa Prefecture, Japan",37.230995,136.9124745,Anamizu,Japan,done
206,Amble,England,"Amble, Morpeth NE65, UK",55.331461,-1.585261,Amble,United Kingdom,done
3873,Anarontsangana,Madagascar,,,,,,not_found
5439,AMBON,The Molucca Islands,"Teluk Ambon, Kota Ambon, Maluku, Indonesia",-3.6553932,128.1907723,Teluk Ambon,Indonesia,done
5735,Anatom,Vanuatu,"The Old Barn/32 Gogarbank, Edinburgh EH12 9DE, United Kingdom",55.9243846,-3.3266644,,United Kingdom,done
5726,Ambrym Island,Vanuatu,"Ambrym, Vanuatu",-16.2477839,168.1564432,,Vanuatu,done
8570,Anchorage (Knik Arm),Alaska,"820 E 15th Ave, Anchorage, AK 99501, USA",61.20749960000001,-149.8682026,Anchorage,United States,done
5373,Ambunten,Madura,"Ambunten, Sumenep Regency, East Java, Indonesia",-6.893463499999999,113.7432145,,Indonesia,done
1889,ANCONA,Italy,"Ancona, Italy",43.6158299,13.518915,Ancona,Italy,done
5758,Amedee Lighthouse,New Caledonia,"South Province, New Caledonia",-22.4772569,166.4681429,,New Caledonia,done
1231,Andalsnes,Norway,"Åndalsnes, Norway",62.56744610000001,7.68722,Åndalsnes,Norway,done
8799,American Bay,Prince of Wales Island,"Bay County, FL, USA",30.1805306,-85.684578,,United States,done
1177,Andenes,Norway,"Andenes, Norway",69.31607989999999,16.1202284,Andenes,Norway,done
6154,American River,Australia South Coast,"American River, California, USA",38.5990514,-121.3641385,,United States,done
8494,Anderson Bay,Aleutian Islands,"Bay St, Anderson, CA 96007, USA",40.459257,-122.2888,Anderson,United States,done
3871,Andoany (Hellville),Madagascar,"Hell-Ville, Madagascar",-13.3970988,48.26672790000001,Hell-Ville,Madagascar,done
7510,Anmado,Korea West Coast,"V. Mačernio g. 25, Plungė 90141, Lithuania",55.9071223,21.8287782,Plungė,Lithuania,done
4532,Andrew Bay,Burma,"Andrew St SE, Palm Bay, FL 32909, USA",27.9828119,-80.654333,Palm Bay,United States,done
2620A,Anna Maria,United States,"50 Sunset Ln, Paxton, MA 01612, USA",42.327075,-71.91794399999999,Paxton,United States,done
3916,Androka,Madagascar,"Androka, Madagascar",-25.029079,44.074669,Androka,Madagascar,done
426,Annan Waterfoot,Scotland,"Waterfoot Rd, Annan DG12 6BY, UK",54.981348,-3.2695828,,United Kingdom,done
4400A,Androth Island,Lakshadweep,"Andrott, 682551",10.8126222,73.68010919999999,,India,done
2712,Annapolis,United States,"Annapolis, MD, USA",38.9784453,-76.4921829,Annapolis,United States,done
2460,Anegada,Leeward Islands,"Anegada, British Virgin Islands",18.7272441,-64.34308920000001,,British Virgin Islands,done
2902,Annapolis Royal,Canada,"Annapolis Royal, NS, Canada",44.742226,-65.515822,Annapolis Royal,Canada,done
7945A,Anesaki,Japan Honshu South Coast,"Anesaki, Ichihara, Chiba Prefecture 299-0111, Japan",35.4750256,140.0448185,Ichihara,Japan,done
9315,Ano Nuevo Island,United States,"Año Nuevo Island, California, USA",37.10829349999999,-122.336614,,United States,done
5635,Anewa Bay,Bismarck Archipelago,,,,,,not_found
2005,Anse Betsy,Antarctica,,,,,,not_found
4076,Anfile Bay,Eritrea,,,,,,not_found
1642,Anse De Feunteun Aod,France,,,,,,not_found
4719,Angler Bank,Singapore,"Angler, Carbondale, CO 81623, USA",39.4337702,-107.2586051,Carbondale,United States,done
1628B,Anse De Primel,France,"Anse de Primel, France",48.715833,-3.807796,,France,done
3843,Angoche (Canal Do Sul),Mozambique,,,,,,not_found
6317B,Anson Bay,Australia North Coast,"Jalan Maharajalela, 36000 Teluk Intan, Perak, Malaysia",3.9936122,100.9958922,Teluk Intan,Malaysia,done
9801,Angostura Guia,Chile,,,,,,not_found
233,Anstruther Easter,Scotland,"Anstruther KY10, UK",56.22298000000001,-2.700539,Anstruther,United Kingdom,done
9772,Angostura Inglesa,Chile,"English Narrows, Chile",-48.916667,-74.408333,,Chile,done
1581B,Antifer (Le Havre),France,"31 Rue Saint-Jacques, 76600 Le Havre, France",49.486607,0.108188,Le Havre,France,done
9811,Angostura Kirke,Chile,,,,,,not_found
2994,Antigonish,Canada,"Antigonish, NS, Canada",45.62266049999999,-61.9928025,Antigonish,Canada,done
3466,Angra Do Heroismo,Azores,"9700 Angra do Heroísmo, Portugal",38.6635375,-27.2293969,Angra do Heroísmo,Portugal,done
2521,Antilla,Cuba,"Antilla, Cuba",20.8325254,-75.7284267,Antilla,Cuba,done
2197,Angra Dos Reis,Brazil,"Angra dos Reis - State of Rio de Janeiro, Brazil",-23.0058039,-44.3157913,,Brazil,done
6535,Antipodes Islands,New Zealand South Island,"Antipodes Islands, New Zealand",-49.6642656,178.7756278,,New Zealand,done
4371,Angria Bank,India West Coast,Angria Bank,16.5,72.08333329999999,,,done
9610,Antofagasta,Chile,"Antofagasta, Antofagasta Region, Chile",-23.6509279,-70.39750219999999,Antofagasta,Chile,done
7498,Anheung,Korea West Coast,"Anheung, Anheung-ri, Anheung-myeon, Hoengseon, South Korea",37.40152,128.158096,Hoengseon,South Korea,done
2191C,Antonina,Brazil,"Antonina, PR, Brazil",-25.4328356,-48.7162067,Antonina,Brazil,done
4984,Anilao,Philippine Islands,"Anilao, Iloilo, Philippines",11.0002604,122.740723,Anilao,Philippines,done
3948,ANTSIRANANA (DIEGO SUAREZ),Madagascar,"Antisiranana, Madagascar",-12.3231349,49.2942833,Antisiranana,Madagascar,done
4946,Anini-Y,Philippine Islands,"Anini-y, Antique, Philippines",10.4515207,121.958687,Anini-y,Philippines,done
1539,ANTWERP (PROSPERPOLDER),Belgium,,,,,,not_found
6516,Anita Bay,New Zealand South Island,"Anita, Moapa Valley, NV 89040, USA",36.5609802,-114.4446928,Moapa Valley,United States,done
1543,Antwerpen,Belgium,"Antwerp, Belgium",51.2194475,4.4024643,Antwerp,Belgium,done
8043B,Ao,Japan Honshu West Coast,Austria,47.516231,14.550072,,Austria,done
0338A,Applecross,Scotland,"Applecross WA 6153, Australia",-32.014,115.839,Applecross,Australia,done
4637,Ao Kaulak,Thailand West Coast,,,,,,not_found
536,Appledore,England,"Appledore, UK",51.053778,-4.193055999999999,Appledore,United Kingdom,done
6896,Ao Muang Trat,Thailand,"45/39 Tesbarn 5 Rd., Tumbon Wang Krachae, Amphoe Mueang Trat, 23000, Thailand",11.5832972,102.5765991,,Thailand,done
4244,Ar Ru'ays,Qatar,"Al Ruwais, Qatar",26.1301245,51.1977605,Al Ruwais,Qatar,done
4640,Ao Nang (Krabi),Thailand West Coast,"Ao Nang, Mueang Krabi District, Krabi, Thailand",8.0362834,98.8328141,Ao Nang,Thailand,done
4221B,Ar Ru'ays (United Arab Emirates),United Arab Emirates,,,,,,not_found
6889,Ao Sattahip,Thailand,,,,,,not_found
2225,ARACAJU,Brazil,"Aracaju, SE, Brazil",-10.9472468,-37.0730823,Aracaju,Brazil,done
7868,Ao Shima,Japan Shikoku North Coast,"Ao-shima, Japan",33.7333333,132.4833333,,Japan,done
6335A,Arafura Sea,Australia North Coast,Arafura Sea,-8.7762905,136.2091547,,,done
7798,Aohama,Japan Kyushu North Coast,"Boulder Run Mall, 319 Franklin Ave, Wyckoff, NJ 07481, USA",41.012158,-74.16673639999999,Wyckoff,United States,done
241,Arbroath,Scotland,"Arbroath DD11, UK",56.559107,-2.591543,Arbroath,United Kingdom,done
7159C,Aojiao,China,,,,,,not_found
1691,Arcachon (Eyrac),France,"Port d'Eyrac, 33120 Arcachon, France",44.66201969999999,-1.1542048,Arcachon,France,done
7829B,Aoki,Japan Honshu South Coast,"Aoki, Chiisagata District, Nagano Prefecture, Japan",36.3703459,138.1288396,Aoki,Japan,done
6361,Archer River,Australia North Coast,"Archer River QLD 4892, Australia",-13.3477828,142.5267209,Archer River,Australia,done
8017,Aomori,Japan Honshu East Coast,"Aomori Prefecture, Japan",40.8243077,140.7399984,,Japan,done
3319,Arctic Bay,Canadian Arctic,"Arctic Bay, NU, Canada",73.03757499999999,-85.148031,Arctic Bay,Canada,done
8143,Aonae,Japan Hokkaido West Coast,"Aonae, Okushiri, Okushiri District, Hokkaido Prefecture 043-1521, Japan",42.0628467,139.4496276,Okushiri,Japan,done
0371B,Ardchattan Point,Scotland,,,,,,not_found
6370,Aotea Harbour,New Zealand North Island,"Aotea Harbour, New Zealand",-37.9808799,174.8432665,,New Zealand,done
631,Ardglass,Northern Ireland,"Ardglass, Downpatrick BT30, UK",54.2633033,-5.6108327,Ardglass,United Kingdom,done
2614,Apalachicola,United States,"Apalachicola, FL 32320, USA",29.7257675,-84.9832435,Apalachicola,United States,done
2041A,Ardley Cove,Antarctica,"Ardley Ave, Oakland, CA 94602, USA",37.8018963,-122.2234952,Oakland,United States,done
3636,APAPA,Nigeria,"Apapa, Lagos, Nigeria",6.45528,3.3640841,Lagos,Nigeria,done
378,Ardnave Point,Scotland,"Ardnave, Bridgend, United Kingdom",55.873096,-6.346321,,United Kingdom,done
5004,Aparri,Philippine Islands,"Aparri, Cagayan, Philippines",18.3550839,121.6420059,Aparri,Philippines,done
410,Ardrossan,Scotland,"Ardrossan, UK",55.64388899999999,-4.81182,Ardrossan,United Kingdom,done
6684,Apia,Samoa Islands,"Apia, Samoa",-13.8506958,-171.7513551,Apia,Samoa,done
6165,Ardrossan (S. Australia),Australia South Coast,"Ardrossan SA 5571, Australia",-34.4191074,137.9178012,Ardrossan,Australia,done
4934,Apo Island,Philippine Islands,"Apo Island, Dauin, Philippines",9.079721300000001,123.2714292,Dauin,Philippines,done
2239,Areia Branca (Salineiro Terminal),Brazil,,,,,,not_found
8419,Apokak,Alaska,,,,,,not_found
9288,Arena Cove,United States,"Arena Cove, California, USA",38.9116615,-123.7154467,,United States,done
6081,Apollo Bay,Australia East Coast,"Apollo Bay VIC 3233, Australia",-38.75,143.65,Apollo Bay,Australia,done
1290,Arendal,Norway,"Arendal, Norway",58.4617568,8.7724499,Arendal,Norway,done
7004,Apowan,Vietnam,,,,,,not_found
3159,ARGENTIA,Newfoundland,"Argentia, NL A0B, Canada",47.302052,-53.986824,Argentia,Canada,done
1399,Arhus,Denmark,"Aarhus, Denmark",56.162939,10.203921,Aarhus,Denmark,done
0074B,Arundel,England,"Arundel BN18, UK",50.855171,-0.555119,Arundel,United Kingdom,done
9594,Arica,Chile,"Arica, Arica y Parinacota Region, Chile",-18.4782534,-70.3125988,Arica,Chile,done
6569,Arutua,Tuamoto (Low) Archipelago,"Arutua, French Polynesia",-15.2899056,-146.786149,,French Polynesia,done
2960,Arichat,Canada,"Arichat, NS, Canada",45.5137315,-61.01184250000001,Arichat,Canada,done
1820,Arzew,Algeria,"Arzew, Algeria",35.8602138,-0.3465971,Arzew,Algeria,done
3199,Ariege Bay,Newfoundland,,,,,,not_found
1993,As Sallum,Egypt,"El Salloum, Qesm as Saloum, Matrouh Governorate, Egypt",31.575001,25.159321,El Salloum,Egypt,done
7625,Arikawa,Japan,"Japan, 〒810-0073 Fukuoka-ken, Fukuoka-shi, Chūō-ku, Maizuru, 2 Chome−7−15, ＡＲＩＫＡＷＡ",33.591934,130.3912946,Fukuoka-shi,Japan,done
4288,Asaluyeh,Iran,"Asaluyeh, Bushehr Province, Iran",27.472075,52.6146057,Asaluyeh,Iran,done
1045,ARKHANGEL'SK,Russia,"Arkhangelsk, Arkhangelsk Oblast, Russia",64.54725069999999,40.5601553,Arkhangelsk,Russia,done
8016,Asamushi,Japan Honshu East Coast,"〒039-3501, 坂本-９-３０ 浅虫 青森市 青森県 039-3501, Japan",40.8893827,140.8617784,青森市,Japan,done
611,ARKLOW,Ireland,"Arklow, Co. Wicklow, Ireland",52.79769349999999,-6.1599293,Arklow,Ireland,done
6689,Asau Harbour,Samoa Islands,"Asau, Samoa",-13.5094357,-172.6353455,Asau,Samoa,done
1376,Arkona,Germany,"Arkona, Lambton Shores, ON N0M, Canada",43.075855,-81.83406699999999,Lambton Shores,Canada,done
3770,Ascension Island,Mid South Atlantic Islands,"Ascension Island, ASCN 1ZZ, Saint Helena, Ascension and Tristan da Cunha",-7.946716599999999,-14.3559158,,"Saint Helena, Ascension and Tristan da Cunha",done
8870,Armentieres Channel,Graham Island,,,,,,not_found
4072,Aseb,Eritrea,"Āssab, Eritrea",13.0139405,42.7369299,Āssab,Eritrea,done
4357A,Arnalapada,India West Coast,,,,,,not_found
4263,ASH SHUWAYKH,Kuwait,"Ash Shuwaikh, Tuwaiq, Riyadh 14923, Saudi Arabia",24.578414,46.5490218,Riyadh,Saudi Arabia,done
837,Arngerdharseyri,Iceland,,,,,,not_found
4170A,Ash Shuwaymiyah,Oman,,,,,,not_found
6186,Arno Bay,Australia South Coast,"Arno Bay SA 5603, Australia",-33.9093366,136.5689944,Arno Bay,Australia,done
1990,Ashdod,Israel,"Ashdod, Israel",31.804381,34.655314,Ashdod,Israel,done
3158A,Arnold's Cove,Newfoundland,"Arnold's Cove, NL, Canada",47.75744479999999,-53.9887437,Arnold's Cove,Canada,done
3307,Ashe Inlet,Labrador,"Baffin, Unorganized, NU, Canada",62.53333,-70.56,,Canada,done
0440A,Arnside,England,"Arnside, UK",54.203808,-2.832755,Arnside,United Kingdom,done
7621,Ashibe,Japan,"Dar es Salaam, Tanzania",-6.7630871,39.2803194,Dar es Salaam,Tanzania,done
6750,Arorae,Kiribati,"Arorae, Kiribati",-2.6333333,176.8166667,,Kiribati,done
6274,Ashmore Reef (West Islet),Australia North Coast,,,,,,not_found
1657A,Arradon,France,"Arradon, France",47.627666,-2.822817,Arradon,France,done
3504,Asilah,Morocco,"Asilah, Morocco",35.4646127,-6.0308654,Asilah,Morocco,done
1747,Arrifana,Portugal,"8670-156 Aljezur, Portugal",37.2928299,-8.864944099999999,Aljezur,Portugal,done
5450,Asimiro,Halmahera,"Asimiro, North Loloda, North Halmahera Regency, North Maluku, Indonesia",1.9675096,127.8193872,,Indonesia,done
401,Arrochar,Scotland,"Arrochar, UK",56.20097200000001,-4.745479,Arrochar,United Kingdom,done
1242,Askvoll,Norway,"Askvoll, Norway",61.3467485,5.062018999999999,Askvoll,Norway,done
1594,Arromanches,France,"14117 Arromanches, France",49.333333,-0.616667,Arromanches,France,done
3977,Assomption Island,Seychelles,"Assomption, Seychelles",-9.7367905,46.5114487,,Seychelles,done
2041B,Artigas,Antarctica,"Artigas Department, Uruguay",-30.4059907,-56.470944,,Uruguay,done
9228,Astoria (Tongue Point),United States,"Tongue Point, Astoria, OR 97103, USA",46.208731,-123.762191,Astoria,United States,done
6455,Astrolabe Road,New Zealand South Island,"Astrolabe Rd, Daceyville NSW 2032, Australia",-33.9278216,151.2229269,Daceyville,Australia,done
3619,Axim,Ghana,"Axim, Ghana",4.8665091,-2.240888,Axim,Ghana,done
4105,At Tur,Egypt,"At-Tur, Qesm Sharm Ash Sheikh, South Sinai Governorate, Egypt",28.539722,33.973333,,Egypt,done
1753A,Ayamonte,Spain,"21400 Ayamonte, Huelva, Spain",37.2141237,-7.4043413,Ayamonte,Spain,done
2205,ATAFONA,Brazil,"Atafona, São João da Barra - RJ, Brazil",-21.6268057,-41.020846,,Brazil,done
1950,Aydincik Koyu,Turkey,"Aydıncık, 07900 Aydıncık/Gazipaşa/Antalya, Turkey",36.302452,32.316187,Aydıncık Köyü,Turkey,done
5413,Atapupu,Timor,"Atapupu, Kakuluk Mesak, Kabupaten Belu, Nusa Tenggara Tim., Indonesia",-8.994297999999999,124.862,Atapupu,Indonesia,done
958,Ayon Island,Russia,"Ayon Island, Chukotka Autonomous Okrug, Russia, 689425",69.75,168.5,,Russia,done
9586,Atico,Peru,"Atico, Peru",-16.225571,-73.613171,Atico,Peru,done
413,Ayr,Scotland,"648 Broadway #808, New York, NY 10012, USA",40.726579,-73.99531250000001,New York,United States,done
5026,Atimonan,Philippine Islands,"Atimonan, Quezon, Philippines",13.9966108,121.9180499,Atimonan,Philippines,done
7987,Ayukawa,Japan Honshu East Coast,"Ayukawa, Tanabe, Wakayama Prefecture 646-1101, Japan",33.7272957,135.4823084,Tanabe,Japan,done
2736,Atlantic City,United States,"Atlantic City, NJ, USA",39.3642834,-74.4229266,Atlantic City,United States,done
1968,Ayvalik,Turkey,"Ayvalık, 10400 Ayvalık/Balıkesir Province, Turkey",39.319185,26.692387,Ayvalık,Turkey,done
2234,Atol Das Rocas,Brazil,"Rocas Atoll, State of Rio Grande do Norte, Brazil",-3.8667783,-33.8020459,,Brazil,done
4249,Az Zallaq,Bahrain,"105 Zallaq Highway,Building 2015, Block 1055, Zallaq, Manama 555, Bahrain",26.053197,50.48458,Manama,Bahrain,done
6400,AUCKLAND,New Zealand North Island,"Auckland, New Zealand",-36.8484597,174.7633315,Auckland,New Zealand,done
5516,Babo,Papua,"951 34 Báb, Slovakia",48.3103344,17.8682559,Báb,Slovakia,done
1643,Audierne,France,"29770 Audierne, France",48.021938,-4.538539999999999,Audierne,France,done
5009,Babuyan Island,Philippine Islands,"Babuyan Islands, Philippines",19.206774,121.6046622,,Philippines,done
5768,Aue Bay,New Caledonia,"Aue, 42103 Wuppertal, Germany",51.2542441,7.137987,Wuppertal,Germany,done
2860,Back Bay,Canada,"Back Bay, Boston, MA, USA",42.35026480000001,-71.0809757,Boston,United States,done
5692,Auki Harbour,Solomon Islands,"Auki Harbour, Solomon Islands",-8.7910037,160.6871091,,Solomon Islands,done
4953,Bacolod,Philippine Islands,"Bacolod, Negros Occidental, Philippines",10.6407389,122.9689565,Bacolod,Philippines,done
2992,AULDS COVE,Canada,"Aulds Cove, NS, Canada",45.6420556,-61.4396677,Aulds Cove,Canada,done
3635A,Badagry Creek,Nigeria,"Badagry Creek, Lagos, Nigeria",6.4502988,3.2074712,Lagos,Nigeria,done
1657,Auray,France,"56400 Auray, France",47.66649100000001,-2.983767,Auray,France,done
329,Badcall Bay,Scotland,"Badcall Bay, United Kingdom",58.318265,-5.1454008,,United Kingdom,done
6345B,Auster Point,Australia North Coast,,,,,,not_found
1157,Badderen,Norway,"Badderen, Norway",69.8451579,22.0261497,Badderen,Norway,done
885,Austervag,Svalbard,,,,,,not_found
6243B,Badjirrajirra,Australia North Coast,,,,,,not_found
9354A,AVALON,United States,"2200 1st St, Alpharetta, GA 30009, USA",34.0712206,-84.2764929,Alpharetta,United States,done
3322,Baffin,Canadian Arctic,"Baffin Region, NU, Canada",71.6157443,-78.64604469999999,,Canada,done
1710,Aviles,Spain,"Avilés, Asturias, Spain",43.5511103,-5.9304039,,Spain,done
3600,Baffu Bay,Liberia,Baffin Bay,74.69324929999999,-68.4928018,,,done
8034,Awa Shima (Honshu),Japan Honshu West Coast,,,,,,not_found
4002,Bagamoyo,Tanzania,"Bagamoyo, Tanzania",-6.4456338,38.898941,Bagamoyo,Tanzania,done
7882,Awashima,Japan Shikoku North Coast,"Awashima, Gosen, Niigata Prefecture 959-1861, Japan",37.7490046,139.1812953,Gosen,Japan,done
4792,Bagan,Sumatera North East Coast,"Old Bagan, Myanmar (Burma)",21.1717271,94.8585458,Old Bagan,Myanmar (Burma),done
4678,Bagan Datuk,Peninsular Malaysia West Coast,"Bagan Datoh, Perak, Malaysia",3.99191,100.7861479,Bagan Datoh,Malaysia,done
9534,Bahia De Caraquez,Ecuador,"Bahia de Caraquez, Ecuador",-0.6186619,-80.4273644,Bahia de Caraquez,Ecuador,done
4785,Bagan Si Api Api,Sumatera North East Coast,"Bagansiapiapi, Bagan Timur, Bangko, Rokan Hilir Regency, Riau, Indonesia",2.157713,100.8162,Bagansiapiapi,Indonesia,done
9425,Bahia De Chamela,Mexico,"Bahía de Chamela, Miramar, 45060 Zapopan, Jal., Mexico",20.6414867,-103.4491049,Zapopan,Mexico,done
4975,Bagatao Island,Philippine Islands,"Bagatao Island, Sorsogon City, Philippines",12.829536,123.8104222,Sorsogon City,Philippines,done
9522,Bahia De Correo,Ecuador,"Niños Héroes 18 Bahía Tortugas Sur, 23953 Mulege, B.C.S., Mexico",27.698975,-114.8971,Mulege,Mexico,done
764,Baginbun Head,Ireland,"Ramstown, Co. Wexford, Ireland",52.1765851,-6.830736399999999,,Ireland,done
9407,Bahia De Los Angeles,Mexico,"Bahía de los Ángeles, Baja California, Mexico",28.9519153,-113.5624339,Bahía de los Ángeles,Mexico,done
9962,Bahia Aguirre,Argentina,"Bahía Aguirre, Godoy Cruz, Mendoza, Argentina",-32.9554837,-68.8313715,Godoy Cruz,Argentina,done
2107,Bahia De Los Nodales,Argentina,"Bahía de los Nodales, Argentina",-48.016111,-65.89694399999999,,Argentina,done
9979,Bahia Allen Gardiner,Chile,,,,,,not_found
3691,Bahia De Luba (San Carlos),Equatorial Guinea,"Av. Exequiel Bustillo 7500, 8400 San Carlos de Bariloche, Río Negro, Argentina",-41.12091909999999,-71.39237320000001,San Carlos de Bariloche,Argentina,done
9957,Bahia Almirante Brown,Argentina,"Almte Brown, Bahía Blanca, Buenos Aires, Argentina",-38.7845235,-62.26943000000001,Bahía Blanca,Argentina,done
9549,Bahia De Talara,Peru,,,,,,not_found
9680,Bahia Ancud,Chile,,,,,,not_found
9412,Bahia De Tepoca,Mexico,,,,,,not_found
9528,Bahia Atacames,Ecuador,"Ensenada de Atacames, Ecuador",0.9429729,-79.77923659999999,,Ecuador,done
9430,Bahia De Zihuatanejo,Mexico,"Bahía de Zihuatanejo, 89506 Cd Madero, Tamps., Mexico",22.2915645,-97.82334089999999,Ciudad Madero,Mexico,done
9568,Bahia Barmejo,Peru,,,,,,not_found
9467,Bahia Del Rincon,Costa Rica,"Rinc��n, Bahía Blanca, Buenos Aires, Argentina",-38.7128819,-62.2506622,Bahía Blanca,Argentina,done
9919,Bahia Bedford,Chile,"Bedford Rd, Spring Hill, FL 34608, USA",28.464491,-82.5536418,Spring Hill,United States,done
9901,Bahia Dislocacion,Chile,,,,,,not_found
9852,Bahia Borja,Chile,"Bahia, Distrito de Lima 15084, Peru",-12.0710035,-77.0558487,Distrito de Lima,Peru,done
3753,Bahia Dos Tigres,Angola,"Baia dos Tigres, Angola",-16.5921976,11.6954435,,Angola,done
2092,Bahia Buen Suceso,Argentina,"Bahía Buen Suceso, Río Gallegos, Santa Cruz, Argentina",-51.6237495,-69.25372209999999,Río Gallegos,Argentina,done
2381,Bahia El Tablazo,Venezuela,,,,,,not_found
2115,Bahia Bustamante,Argentina,"Bahía Bustamante, Chubut Province, Argentina",-45.1261811,-66.5372371,Bahía Bustamante,Argentina,done
9456,Bahia Elena,Costa Rica,"Elena Dr, Holiday, FL 34690, USA",28.2068427,-82.7187228,Holiday,United States,done
9882,Bahia Catalina,Chile,"Bahía Catalina, Santiago, Región Metropolitana, Chile",-33.5627992,-70.6103819,,Chile,done
2124,Bahia Engano (Puerto Rawson),Argentina,"Bahía Engaño, Chubut, Argentina",-43.366667,-65.05,,Argentina,done
9374,Bahia Colnett,Mexico,,,,,,not_found
2430,Bahia Espiritu Santo,Mexico (Caribbean),"Bahía Espíritu Santo, Mazatlan II, 82195 Mazatlán, Sin., Mexico",23.2313038,-106.3831324,Mazatlán,Mexico,done
9402,Bahia Concepcion,Mexico,"Bahia de Concepcion, Mexico",26.5940482,-111.7376178,,Mexico,done
9889,Bahia Felipe,Chile,"Avenida Colón, 22, 38400 Puerto de la Cruz, Santa Cruz de Tenerife, Spain",28.416711,-16.541504,Puerto de la Cruz,Spain,done
2090,Bahia Crossley,Argentina,,,,,,not_found
9564,Bahia Ferrol,Peru,"Bahía de Chimbote, Peru",-9.1312467,-78.60014819999999,,Peru,done
9517,Bahia Darwin,Ecuador,"Manuel Rodríguez 547, La Granja, Región Metropolitana, Chile",-33.5440963,-70.6263349,La Granja,Chile,done
9861,Bahia Fortescue,Chile,"Bahía Fortescue, Chile",-53.7,-72,,Chile,done
2509A,Bahia De Cabanas,Cuba,"Bahia de Cabanas, Cuba",23.0151555,-82.9743495,,Cuba,done
9824,Bahia Fortuna,Chile,"Fortuna Bay, SIQQ 1ZZ, South Georgia and the South Sandwich Islands",-54.1049033,-36.7941551,,South Georgia and the South Sandwich Islands,done
9921,Bahia Furia,Chile,"Calle José Hernández 48, 8000 Bahía Blanca, Buenos Aires, Argentina",-38.6960301,-62.29436399999999,Bahía Blanca,Argentina,done
9795,Bahia Portland,Chile,"2512 SE Gladstone St #200, Portland, OR 97202, USA",45.4930945,-122.6402903,Portland,United States,done
2118,Bahia Gil,Argentina,"Bahía Gil, Argentina",-45.044444,-65.690833,,Argentina,done
9379,Bahia Rosario,Mexico,"Maipú 1262, Rosario, Santa Fe, Argentina",-32.9526834,-60.63671249999999,Rosario,Argentina,done
2509,Bahia Honda,Cuba,"Bahia Honda State Park, 36850 Overseas Hwy, Big Pine Key, FL 33043, USA",24.659744,-81.27439849999999,Big Pine Key,United States,done
9396,Bahia San Jose Del Cabo,Mexico,"Av. El Pescador, s/n, El Medano, 23453 Cabo San Lucas, BCS, Mexico",22.8884247,-109.9055421,Cabo San Lucas,Mexico,done
9477,Bahia Honda (Panama),Panama,"Bahía Honda, Bastimento, Panama",9.316995,-82.15776509999999,Bastimento,Panama,done
9389,Bahia San Juanico,Mexico,"San Juanico, Baja California Sur, Mexico",26.2568056,-112.4812989,San Juanico,Mexico,done
9566,Bahia Huarmey,Peru,,,,,,not_found
9748,Bahia San Quintin,Chile,"Bahía de San Quintín, Baja California, Mexico",30.43333299999999,-115.966667,,Mexico,done
9580,Bahia Independencia,Peru,"Bahía de la Independencia, Peru",-14.238611,-76.19027799999999,,Peru,done
9377,"Bahia San Quintin, Mexico",Mexico,"Calle Heriberto Jara, Ensenada, B.C., Mexico",31.87892879999999,-116.636894,Ensenada,Mexico,done
9970,Bahia India,Chile,"Bahia, Haryana 125075, India",29.5942983,74.6802956,Bahia,India,done
2099,Bahia San Sebastian,Argentina,"Bahia San Sebastian, Argentina",-53.1880395,-68.3224378,,Argentina,done
2122,Bahia Janssen,Argentina,,,,,,not_found
9493,Bahia San Telmo,Panama,"Bahía de San Telmo, Panama",8.2737579,-78.8948741,,Panama,done
9749,Bahia Kelly,Chile,,,,,,not_found
9891,Bahia Santiago,Chile,"Bahía, Conchalí, Región Metropolitana, Chile",-33.3698674,-70.68400989999999,Conchalí,Chile,done
9904,Bahia Latitud,Chile,"Bahia Latitud, Viña del Mar, Región de Valparaíso, Chile",-33.0382331,-71.5083533,Viña del Mar,Chile,done
9821,Bahia Sholl,Chile,"1718 Eighth Street, Berkeley, CA 94710, USA",37.8720548,-122.2973866,Berkeley,United States,done
2106,Bahia Laura,Argentina,"Bahía Laura, Santa Cruz, Argentina",-48.39393159999999,-66.4773514,Bahía Laura,Argentina,done
9863,Bahia Snug,Chile,"Bahía Snug, Puente Alto, Región Metropolitana, Chile",-33.5757958,-70.6023112,Puente Alto,Chile,done
9694,Bahia Linao,Chile,,,,,,not_found
2093,Bahia Thetis,Argentina,"Bahía Thetis, Tierra del Fuego, Argentina",-54.623991,-65.226912,Bahía Thetis,Argentina,done
9392,Bahia Magdalena,Mexico,"Magdalena Bay, Baja California Sur, Mexico",24.583333,-112,,Mexico,done
9708,Bahia Tictoc,Chile,,,,,,not_found
9865,Bahia Morris (Puerto Sholl),Chile,,,,,,not_found
9859,Bahia Tilly,Chile,,,,,,not_found
9860,Bahia Mussel,Chile,,,,,,not_found
9635,Bahia Tongoy,Chile,,,,,,not_found
2516,Bahia Nuevitas Entrance,Cuba,,,,,,not_found
9385,Bahia Tortugas,Mexico,"Bahía Tortugas, B.C.S., Mexico",27.6936418,-114.8966932,Bahía Tortugas,Mexico,done
9498,Bahia Octavia,Colombia,"Octavia Ln, Webster, FL 33597, USA",28.533312,-82.189154,Webster,United States,done
2110,Bahia Uruguay,Argentina,"Bahía Uruguay, Argentina",-47.754444,-66.025556,,Argentina,done
2108,Bahia Oso Marino,Argentina,"Bahía del Oso Marino, Santa Cruz, Argentina",-47.916667,-65.783333,,Argentina,done
9954,BAHIA USHUAIA,Argentina,"Bahía Ushuaia, Ushuaia, Tierra del Fuego, Argentina",-54.8328389,-68.3633013,Ushuaia,Argentina,done
9496,Bahia Pina,Panama,"Bahia Pinas Aeropuerto, Panama",7.5846319,-78.18120259999999,,Panama,done
9464,Bahia Uvita,Costa Rica,"Puntarenas Province, Uvita, Costa Rica",9.157885,-83.7474938,Uvita,Costa Rica,done
9381,Bahia Playa Maria,Mexico,"Bahia Santa Maria, Mexico",22.9297512,-109.8153495,,Mexico,done
9799,Bahia Wide,Chile,,,,,,not_found
9836,Bahia Wodsworth,Chile,,,,,,not_found
5764,Baie De La Poya,New Caledonia,"Poya Bridge, Pont de la Poya, 1700 Fribourg, Switzerland",46.8130151,7.1652008,Fribourg,Switzerland,done
4250E,Bahrain Approach Buoy,Bahrain,,,,,,not_found
3713,Baie De Mayumba,Gabon,,,,,,not_found
4250A,Bahrain Yacht Club (Sitrah),Bahrain,"Sitra, Bahrain",26.1140205,50.6337486,Sitra,Bahrain,done
3877,Baie De Moramba,Madagascar,,,,,,not_found
7161,Bai Yu,China,"6431 Fannin St # 2100, Houston, TX 77030, USA",29.71306599999999,-95.397055,Houston,United States,done
5749,Baie De Poro,New Caledonia,,,,,,not_found
3695,Baia De Ana Chaves,Sao Tome e Principe,"Ana Chaves Bay, São Tomé and Príncipe",0.3652474,6.7199658,,São Tomé and Príncipe,done
3946,Baie De Rigny,Madagascar,,,,,,not_found
3748,Baia De Santa Marta,Angola,"Cra. 5 #10B, Santa Marta, Magdalena, Colombia",11.2468854,-74.2100346,Santa Marta,Colombia,done
3937,Baie De Tintingue,Madagascar,"Baie de Tintingue, Madagascar",-16.7666327,49.8137871,,Madagascar,done
3694,Baia De Santo Antonio,Sao Tome e Principe,"Baía de Santo Antônio, Belém - PA, Brazil",-1.2334085,-48.4887224,,Brazil,done
6965,Baie De Xuan Day,Vietnam,,,,,,not_found
3747,Baia Dos Elefantes,Angola,,,,,,not_found
3499,Baie Do Tarrafal,Cape Verde Islands,,,,,,not_found
8187,Baidukov Island,Siberia,"Baydukov Island, Khabarovsk Krai, Russia, 682434",53.333333,141.383333,,Russia,done
3491,Baie Do Tarrafal (Santo Antao),Cape Verde Islands,,,,,,not_found
3864,Baie Ambavanibe,Madagascar,,,,,,not_found
3865,Baie Du Courrier,Madagascar,"Baie du Courrier, Madagascar",-12.283333,49,,Madagascar,done
3098,BAIE COMEAU,Canada,"Baie-Comeau, QC, Canada",49.2212971,-68.1503944,Baie-Comeau,Canada,done
5756,Baie Du Prony,New Caledonia,"Prony Bay, New Caledonia",-22.3596367,166.854799,,New Caledonia,done
3965,Baie Curieuse,Seychelles,"Curieuse, Seychelles",-4.2815904,55.7217235,,Seychelles,done
2007A,Baie Larose,Antarctica,"Baie Larose, French Southern and Antarctic Lands",-49.59513339999999,69.34647939999999,,French Southern and Antarctic Lands,done
1815,Baie D'al Hoceima,Morocco,Gulf of Hoceima,35.2531388,-3.8349976,,,done
2006A,Baie Norvegienne,Antarctica,"Baie Norvegienne, French Southern and Antarctic Lands",-49.4063112,70.4116504,,French Southern and Antarctic Lands,done
5750,Baie D'amata,New Caledonia,,,,,,not_found
5751,Baie Ouinne,New Caledonia,,,,,,not_found
5762,Baie D'ouarai,New Caledonia,,,,,,not_found
5760,Baie St. Vincent,New Caledonia,"Vincer Bay, New Caledonia",-21.9650203,166.1203982,,New Caledonia,done
3904,Baie De Ampasilava,Madagascar,,,,,,not_found
3193,Baie Verte,Newfoundland,"Baie Verte, NL, Canada",49.9392654,-56.1907286,Baie Verte,Canada,done
3886,Baie De Baly,Madagascar,"Baie De Baly National Park, Madagascar",-16.0263052,45.2431035,,Madagascar,done
3108,Baie-Johan-Beetz,Canada,"Baie-Johan-Beetz, QC G0G, Canada",50.3569393,-62.7364662,,Canada,done
5765,Baie De Gomen,New Caledonia,"Gomen Bay, New Caledonia",-20.7405405,164.3939339,,New Caledonia,done
5566A,Baiiri Island,Papua New Guinea,"Biri Island, Bayan ng Biri, Hilagang Samar, Philippines",12.6680556,124.3769444,Bayan ng Biri,Philippines,done
5749A,Baie De Kouaoua,New Caledonia,"Kouaoua Bay, New Caledonia",-21.3828919,165.8272482,,New Caledonia,done
7269,Baijie Shan,China,"Baijie Mountain, Shengsi, Zhoushan, China",30.617611,122.427429,Zhoushan,China,done
2004,Baie De L'oiseau,Antarctica,"175 Rue Ambroise Fafard, Baie-Saint-Paul, QC G3Z 2K1, Canada",47.4279894,-70.51090549999999,Baie-Saint-Paul,Canada,done
8191,Baikal Inlet,Sakhalin West Coast,,,,,,not_found
5899,Bailay Creek,Australia East Coast,"Bailey Creek Dr, Westwood, CA 96137, USA",40.2928273,-121.1430669,Westwood,United States,done
9487,BALBOA,Panama,"Balboa Peninsula, Newport Beach, CA, USA",33.607795,-117.924131,Newport Beach,United States,done
1725,Baiona,Spain,"Baiona, Pontevedra, Spain",42.1200897,-8.852356200000001,,Spain,done
622,Balbriggan,Ireland,"Balbriggan, Co. Dublin, Ireland",53.6083194,-6.182079799999999,Balbriggan,Ireland,done
7209,Baiquan Liedao,China,,,,,,not_found
5020,Baler Bay,Philippine Islands,"Baler Bay, Philippines",15.8728845,121.6739371,,Philippines,done
4957,Bais,Philippine Islands,"Bais City, Negros Oriental, Philippines",9.5915686,123.1211792,Bais City,Philippines,done
4160,Balhaf,Republic of Yemen,"Balhaf, Yemen",13.9968809,48.184644,Balhaf,Yemen,done
4187A,Bait Al Barakah,Oman,"Bait Al Barakah Royal Palace, Seeb, Oman",23.7093483,58.0910915,Seeb,Oman,done
5228,BALIKPAPAN,Kalimantan,"Balikpapan, Balikpapan City, East Kalimantan, Indonesia",-1.2379274,116.8528526,Balikpapan,Indonesia,done
7275,Baitashan,China,Paektu Mountain,41.9930145,128.0774756,,North Korea,done
3548,Balingo,The Gambia,"25030 Berlingo BS, Italy",45.5022142,10.0315711,Berlingo,Italy,done
3803,Baixos Da Inhaca,Mozambique,"Baixos da Inhaca, Mozambique",-25.9166667,32.9,,Mozambique,done
318,Balivanich,Scotland,"Balivanich, Isle of Benbecula HS7, UK",57.472272,-7.374351,Balivanich,United Kingdom,done
7343,Bajiao,China,"Bajiao Amusement Park, Shijingshan Qu, China, 100043",39.907442,116.212684,,China,done
2995,Ballantynes Cove,Canada,"Ballantynes Cove, NS, Canada",45.866667,-61.91666699999999,Ballantynes Cove,Canada,done
5408,Bajo,Flores,"Baja, Hungary",46.1817951,18.9543051,Baja,Hungary,done
6009,Ballina,Australia East Coast,"Ballina NSW 2478, Australia",-28.8379654,153.5629067,Ballina,Australia,done
3659,Bakana,Nigeria,"Bakana, Nigeria",4.7366792,6.9665476,Bakana,Nigeria,done
726,Ballinskelligs Bay Castle,Ireland,"Castleview, Ballinskelligs, Co. Kerry, Ireland",51.8240299,-10.2747597,Ballinskelligs,Ireland,done
5108,Bakapit,Sabah,"Jalan Tungku, Km 49, Sabah, 91120 Lahad Datu, Malaysia",5.048846,118.3593139,Lahad Datu,Malaysia,done
651,Ballycastle Bay,Northern Ireland,"Ballycastle, Williamsburg, VA 23188, USA",37.3136805,-76.77783099999999,Williamsburg,United States,done
1898A,Bakar,Croatia,"Bakar, Croatia",45.3068046,14.5342464,Bakar,Croatia,done
754,Ballycotton,Ireland,"Ballycotton, Co. Cork, Ireland",51.8299148,-8.0097621,Ballycotton,Ireland,done
3668A,Bakassi Bank,Nigeria,"Ndidem Usang Iso Rd, Calabar, Nigeria",4.9989924,8.3459799,Calabar,Nigeria,done
731,Ballycrovane Harbour,Ireland,"Ballycrovane Harbour, Gortgarriff, Co. Cork, Ireland",51.7152778,-9.9666667,,Ireland,done
4843,Bakauhuni,Sumatera South West Coast,"Bakauheni, South Lampung Regency, Lampung, Indonesia",-5.8329324,105.6999122,,Indonesia,done
693,Ballyglass (Broad Haven),Ireland,"Ballyglass, Co. Mayo, Ireland",54.2592209,-9.905244399999999,,Ireland,done
854,Bakkafjordhur,Iceland,,,,,,not_found
690,Ballysadare Bay (Culleenamore),Ireland,,,,,,not_found
0855A,Bakkagerdhi,Iceland,"Bakkagerdhi, Iceland",65.537453,-13.73233,Bakkagerdhi,Iceland,done
0290B,Baltasound Pier,Scotland,United Kingdom,60.7587243,-0.8381725,,United Kingdom,done
4920,Balabac,Philippine Islands,"Balabac, Philippines",7.9446691,117.0087877,Balabac,Philippines,done
2716,BALTIMORE,United States,"Baltimore, MD, USA",39.2903848,-76.6121893,Baltimore,United States,done
4960,Balamban Bay,Philippine Islands,"Balamban Bay, Philippines",10.4976664,123.7056643,,Philippines,done
743,"Baltimore, Ireland",Ireland,"Baltimore, Co. Cork, Ireland",51.4843274,-9.3661093,Baltimore,Ireland,done
4483,Balari Semaphore,India East Coast,,,,,,not_found
1369,Baltiysk,Russia,"Baltiysk, Kaliningrad Oblast, Russia",54.6591222,19.9228947,Baltiysk,Russia,done
5079,Balas,Sulu Archipelago,"Bhalas, West Bengal, India",23.8456607,87.7886302,Bhalas,India,done
3565,Bambadinca,Guinea-Bissau,"Bambadinca, Guinea-Bissau",11.9882159,-14.8921668,,Guinea-Bissau,done
9055,Bamfield Inlet,"Canada, Vancouver Island","Bamfield, BC, Canada",48.83328909999999,-125.142835,Bamfield,Canada,done
4297,Bandar-E Lengeh,Iran,"Bandar Lengeh, Hormozgan Province, Iran",26.5627867,54.888679,Bandar Lengeh,Iran,done
5828,Bampfield Head,Australia,,,,,,not_found
4279,BANDAR-E MAHSHAHR,Iran,"Bandar Mahshahr, Khuzestan Province, Iran",30.5619807,49.1727178,Bandar Mahshahr,Iran,done
5546,Bamu River Entrance,Papua New Guinea,,,,,,not_found
4303A,Bandar-E Shahid Bahonar,Iran,,,,,,not_found
6884,BAN BANG PAKONG,Thailand,"Bang Pakong, Bang Pakong District, Chachoengsao, Thailand",13.4932664,100.9637456,Bang Pakong,Thailand,done
4303,BANDAR-E SHAHID RAJAI,Iran,,,,,,not_found
6763,Banaba,Kiribati,"Banana QLD 4702, Australia",-24.472222,150.128056,Banana,Australia,done
4307,Bandar-E Sirik,Iran,,,,,,not_found
3584,Banana Islands,Sierra Leone,"Banana Islands, Sierra Leone",8.1158998,-13.2115287,,Sierra Leone,done
9254,Bandon,United States,"Bandon, OR 97411, USA",43.1189978,-124.408448,Bandon,United States,done
5767,Banare Bay,New Caledonia,"Banare Bay, New Caledonia",-20.1581944,164.0476378,,New Caledonia,done
4764,Bandong,Sumatera North East Coast,"Ban Dong, Mae Mo District, Lampang, Thailand",18.5167866,99.80133509999999,Ban Dong,Thailand,done
4948,Banate,Philippine Islands,"Banate, Iloilo, Philippines",11.000592,122.8155554,Banate,Philippines,done
4358A,Bandra,India West Coast,"Bandra West, Mumbai, Maharashtra, India",19.0606917,72.8362497,Mumbai,India,done
6941,Banc De Corail,Vietnam,"Banc de Corail, Tam Thôn Hiệp, Cần Giờ, Ho Chi Minh, Vietnam",10.6166667,106.85,,Vietnam,done
247,Banff,Scotland,"Banff, AB, Canada",51.1783629,-115.5707694,Banff,Canada,done
2163,Banco Chico,Argentina,"2580 Sierra Sunrise Terrace #200, Chico, CA 95928, USA",39.7438958,-121.7900119,Chico,United States,done
6851,Bang Nara (Narathiwat),Thailand,"Narathiwat, Thailand",6.4254607,101.8253143,,Thailand,done
2495,Banco Serranilla,Jamaica,,,,,,not_found
5324,Banggai,Sulawesi East Coast,"Banggai Regency, Central Sulawesi, Indonesia",-0.956178,122.6277455,,Indonesia,done
3970,Bancs Africains,Seychelles,,,,,,not_found
6883,Bangkok,Thailand,"Bangkok, Thailand",13.7563309,100.5017651,Bangkok,Thailand,done
1831,"Bancs Kerkenah, East Point",Tunisia,,,,,,not_found
6882,BANGKOK BAR,Thailand,"353 W 14th St, New York, NY 10014, USA",40.7408498,-74.00469580000001,New York,United States,done
5435,BANDANAIRA,Sermata Eilanden,"Bandanaira, Nusantara, Banda, Kabupaten Maluku Tengah, Maluku, Indonesia",-4.520239999999999,129.87207,Bandanaira,Indonesia,done
0637A,Bangor,Northern Ireland,"Bangor, ME 04401, USA",44.80118210000001,-68.77781379999999,Bangor,United States,done
4303B,Bandar Abbas,Iran,"Bandar Abbas, Hormozgan Province, Iran",27.1832216,56.2666455,Bandar Abbas,Iran,done
2833,Bangor (Penobscot River),United States,"Bangor, ME 04401, USA",44.80118210000001,-68.77781379999999,Bangor,United States,done
4280,Bandar Deylam,Iran,"Bandar Deylam, Bushehr Province, Iran",30.0589813,50.1678121,Bandar Deylam,Iran,done
9193,Bangor (Puget Sound),United States,"2019 Barb St, Silverdale, WA 98315, USA",47.6946389,-122.7038073,Silverdale,United States,done
4185A,Bandar Jissah,Oman,Oman,23.5515954,58.6430454,,Oman,done
5215,Banjarmasin,Kalimantan,"Banjarmasin, Banjarmasin City, South Kalimantan, Indonesia",-3.3186067,114.5943784,Banjarmasin,Indonesia,done
4185,Bandar Khayran,Oman,"POBox 940، Muscat PC 100, Oman",23.581908,58.60566199999999,Muscat,Oman,done
3544,Banjul,The Gambia,"Banjul, The Gambia",13.4548761,-16.5790323,Banjul,The Gambia,done
5141A,Bandar Limbang,Sarawak,"Limbang, Sarawak, Malaysia",4.755032,115.0081459,Limbang,Malaysia,done
1032,Banka Litke,Russia,,,,,,not_found
4284,Bandar-E Ameri,Iran,,,,,,not_found
4366,Bankot,India West Coast,"Bankot, Maharashtra 415208, India",17.979315,73.0486446,Bankot,India,done
2549A,Bannerman Town,Bahama Islands,"Bannerman Town, The Bahamas",24.66016,-76.182114,Bannerman Town,The Bahamas,done
314,Barra (North Bay),Scotland,"Barra Airport, Eoligarry HS9 5YD, UK",57.02529449999999,-7.4494811,,United Kingdom,done
3550B,Bansang,The Gambia,"Bansang, The Gambia",13.4347156,-14.6573246,Bansang,The Gambia,done
2191,BARRA DE PARANAGUA (CANAL DA GALHETA),Brazil,,,,,,not_found
4959,Bantayan Island,Philippine Islands,"Bantayan Island, Philippines",11.1843073,123.7462457,,Philippines,done
2191A,Barra De Paranagua (Canal Sueste),Brazil,"Av. Arthur de Abreu, 29 - Centro Histórico, Paranaguá - PR, 83203-210, Brazil",-25.5176808,-48.5062598,,Brazil,done
734,BANTRY,Ireland,"Bantry, Co. Cork, Ireland",51.6800803,-9.452576299999999,Bantry,Ireland,done
2240,Barra Do Jaguaribe (Aracati),Brazil,,,,,,not_found
5358,Banyuwangi,Jawa East Coast,"Banyuwangi Regency, East Java, Indonesia",-8.2190944,114.3691416,,Indonesia,done
2211B,BARRA DO RIACHO,Brazil,"Barra do Riacho, Aracruz - ES, Brazil",-19.822963,-40.2798721,,Brazil,done
1911,Bar,Montenegro,"Metro / Smart Bar, 3730 N Clark St, Chicago, IL 60613, USA",41.949794,-87.65882979999999,Chicago,United States,done
2245,Barra Do Timonha,Brazil,,,,,,not_found
2838,Bar Harbour,United States,"Bar Harbor, ME, USA",44.3876119,-68.2039123,Bar Harbor,United States,done
316,Barra Head,Scotland,"Barra Head, Isle of Barra HS9, UK",56.783333,-7.644722,,United Kingdom,done
4036,Baraawe (Brava),Somalia,"Baraawe, Somalia",1.1161954,44.0318162,Baraawe,Somalia,done
2256,Barra Norte (Ilha Do Brigue),Brazil,,,,,,not_found
2524,Baracoa,Cuba,"Baracoa, Cuba",20.3474809,-74.5023819,Baracoa,Cuba,done
2915,Barrington Passage,Canada,"Barrington Passage, NS B0W, Canada",43.527233,-65.609274,Barrington Passage,Canada,done
1765A,Barbate,Spain,"11160 Barbate, Cádiz, Spain",36.1900204,-5.9224799,Barbate,Spain,done
2624,Barron River,United States,"35-37 Straford Parade, Stratford QLD 4870, Australia",-16.8754483,145.734424,Stratford,Australia,done
0370A,Barcaldine Pier,Scotland,,,,,,not_found
439,BARROW (RAMSDEN DOCK),England,"Port Office, Ramsden Dock Rd, Barrow-in-Furness LA14 2TW, UK",54.1008394,-3.2299583,,United Kingdom,done
1776,BARCELONA,Spain,"Barcelona, Spain",41.3850639,2.1734035,Barcelona,Spain,done
513,Barry,Wales,"Barry, UK",51.3997529,-3.2825859,Barry,United Kingdom,done
482,Bardsey Island,Wales,"Bardsey Island, United Kingdom",52.7589951,-4.7863934,,United Kingdom,done
2301,Bartica,Guyana,"Bartica, Guyana",6.4043217,-58.625825,Bartica,Guyana,done
1599,Barfleur,France,"50760 Barfleur, France",49.670616,-1.263766,Barfleur,France,done
8633,Bartlett Cove,Alaska,"Bartlett Cove, Alaska, USA",58.45695060000001,-135.9046117,,United States,done
8716,Barlow Cove,Admiralty Island,"Barlow Cove, Alaska, USA",58.3483978,-134.8903136,,United States,done
0108B,Bartlett Creek,England,"Bartlett Creek, California, USA",38.0238083,-119.8012886,,United States,done
485,Barmouth,Wales,"Barmouth, UK",52.722873,-4.0560919,Barmouth,United Kingdom,done
4819,Barus,Sumatera South West Coast,"Barus, Central Tapanuli Regency, North Sumatra, Indonesia",2.0200601,98.4129396,,Indonesia,done
8921,Barnard Harbour,Canada,"Barnard Harbour, Kitimat-Stikine C (Part 2), BC, Canada",53.0673408,-129.1103841,,Canada,done
4468,Baruva,India East Coast,"Baruva, Andhra Pradesh 532263, India",18.8849403,84.5837904,Baruva,India,done
2737,Barnegat Inlet,United States,"Barnegat Inlet, Berkeley Township, NJ 08006, USA",39.7645645,-74.09957969999999,Berkeley Township,United States,done
4301,Basa'idu,Iran,"Basaidu, Hormozgan Province, Iran",26.6403428,55.2867055,Basaidu,Iran,done
4095,Barnis (Berenice),Egypt,,,,,,not_found
5092,Basbas Channel,Sulu Archipelago,,,,,,not_found
539,Barnstaple,England,"Barnstaple, UK",51.0781599,-4.058338,Barnstaple,United Kingdom,done
5007,Basco,Philippine Islands,"Basco, IL 62313, USA",40.32782290000001,-91.2001437,Basco,United States,done
3252,Basking Island,Labrador,,,,,,not_found
135,Bawdsey,England,"Bawdsey, Woodbridge IP12, UK",52.012223,1.417586,Bawdsey,United Kingdom,done
6064,Bass Pyramid,Australia East Coast,"1 Bass Pro Dr, Memphis, TN 38105, USA",35.155984,-90.0522814,Memphis,United States,done
3164,Bay Bulls,Newfoundland,"Bay Bulls, NL A0A, Canada",47.31851440000001,-52.8155283,Bay Bulls,Canada,done
4541,Bassein,Burma,"Pathein, Myanmar (Burma)",16.7753609,94.7381013,Pathein,Myanmar (Burma),done
2052A,Bay Of Isles,Antarctica,"N Bay Rd, Sunny Isles Beach, FL 33160, USA",25.9419488,-80.12510209999999,Sunny Isles Beach,United States,done
4539,BASSEIN RIVER ENTRANCE,Burma,,,,,,not_found
354,Bay Of Laig,Scotland,"Bay Of Laig, United Kingdom",56.9187812,-6.1657848,,United Kingdom,done
7030,Basuo,China,"Basuozhen, Dongfang, Hainan, China",19.091446,108.670497,,China,done
296,Bay Of Quendale,Scotland,,,,,,not_found
3698,BATA,Equatorial Guinea,"Bata, Equatorial Guinea",1.8533177,9.779022699999999,Bata,Equatorial Guinea,done
2753A,Bay Shore,United States,"Bay Shore, NY, USA",40.7250986,-73.2453946,Bay Shore,United States,done
6047,Batemans Bay,Australia East Coast,"Batemans Bay NSW 2536, Australia",-35.7143871,150.1794707,Batemans Bay,Australia,done
2604B,Bay Waveland Yacht Club,United States,"1 Yacht Club Dr, Bay St Louis, MS 39520, USA",30.3248889,-89.3265497,Bay Saint Louis,United States,done
1538,Bath,Netherlands,"Bath, UK",51.375801,-2.3599039,Bath,United Kingdom,done
5049,Baybay,Philippine Islands,"Baybay City, Leyte, Philippines",10.6521412,124.8525626,Baybay City,Philippines,done
2820,Bath (Kennebec River),United States,"Bath, ME 04530, USA",43.9106353,-69.82060229999999,Bath,United States,done
0310B,Bays Loch,Scotland,"Loch Dr, Green Bay, WI 54304, USA",44.5149186,-88.0631301,Green Bay,United States,done
3040,Bathurst,Canada,"Bathurst NSW 2795, Australia",-33.4192822,149.5775008,Bathurst,Australia,done
7397,Bayuquan,China,"Bayuquan, Yingkou, Liaoning, China",40.230636,122.107814,Yingkou,China,done
3096,Batiscan,Canada,"Batiscan, QC, Canada",46.5013784,-72.264263,,Canada,done
3815,Bazaruto,Mozambique,"Bazaruto Island, Mozambique",-21.6491531,35.46723679999999,,Mozambique,done
3997,Batja,Tanzania,"Kampoeng Batja, Jl. Nusa Indah, Jemberlor, Patrang, Jember Regency, East Java 68118, Indonesia",-8.1572775,113.7034053,,Indonesia,done
518,Beachley (Aust),England,,,,,,not_found
4435,Batticaloa Roads,Sri Lanka,"Maradankadawala-Habarana-Thirukkondaiadimadu Hwy, Sri Lanka",7.905287799999999,81.066018,,Sri Lanka,done
6145,Beachport,Australia South Coast,"Beachport SA 5280, Australia",-37.4880886,140.0132671,Beachport,Australia,done
3204,Battle Harbour,Labrador,"Battle Harbour, NL A0P, Canada",52.2736272,-55.5852154,Battle Harbour,Canada,done
6001,Beacon M2 (Moreton Bay),Australia East Coast,,,,,,not_found
0122C,Battlesbridge,England,"5 Maltings Rd, Battlesbridge SS11 7RF, UK",51.623158,0.56999,,United Kingdom,done
3277,Bear Island,Labrador,"Bear Island, Bjørnøya 9176, Svalbard and Jan Mayen",74.4522484,19.1151972,Bjørnøya,Svalbard and Jan Mayen,done
5171A,Batu Kitang,Sarawak,"Batu Kitang, 93250 Bau, Sarawak, Malaysia",1.433333,110.266667,Bau,Malaysia,done
2662,Beaufort,United States,"Beaufort, SC, USA",32.4315813,-80.6698286,Beaufort,United States,done
4746,Batuampar,Riau Kepulauan,"Batu Ampar, Batam City, Riau Islands, Indonesia",1.1714071,104.0130391,,Indonesia,done
2673B,Beaufort (Duke Marine Lab),United States,"135 Duke Marine Lab Rd, Beaufort, NC 28516, USA",34.716561,-76.6723069,Beaufort,United States,done
4973,Batuan Bay,Philippine Islands,,,,,,not_found
472,Beaumaris,Wales,"Beaumaris LL58, UK",53.265865,-4.09199,Beaumaris,United Kingdom,done
5295,BAUBAU,Sulawesi West Coast,"Bau-bau, Bau-Bau City, South East Sulawesi, Indonesia",-5.4700112,122.5976841,Bau-bau,Indonesia,done
9062A,Becher Bay,"Canada, Vancouver Island","4901 Sooke Rd, Beecher Bay IR 1, BC V9Z 1B6, Canada",48.3376824,-123.6066705,Beecher Bay IR 1,Canada,done
6300,Baudin Island,Australia North Coast,"Baudin Island, Shark Bay WA 6537, Australia",-26.5143679,113.6498494,Shark Bay,Australia,done
9346,Bechers Bay,United States,"Bechers Bay, California, USA",33.988255,-119.9827252,,United States,done
6284,Bedford Island,Australia North Coast,"Bedford Island, West Bengal, India",21.8636818,88.0851909,Bedford Island,India,done
2707,Benedict,United States,"Benedict, MD, USA",38.51064969999999,-76.67981,Benedict,United States,done
6261,Bedout Island,Australia North Coast,"Bedout Island, Western Australia, Australia",-19.5879987,119.0990795,,Australia,done
4773,Bengkalis,Sumatera North East Coast,"Bengkalis Regency, Riau, Indonesia",1.4139187,101.6157773,,Indonesia,done
0108A,Bee Ness,England,,,,,,not_found
4834,BENGKULU,Sumatera South West Coast,"Bengkulu, Indonesia",-3.5778471,102.3463875,,Indonesia,done
7021,BEIHAI GANG,China,"Beihai Gang, China",21.5333333,109.0666667,,China,done
3744,Benguela,Angola,"Benguela, Angola",-12.5905158,13.416501,Benguela,Angola,done
3823,BEIRA,Mozambique,"Beira, Mozambique",-19.7963816,34.8844867,Beira,Mozambique,done
9298,Benicia,United States,"Benicia, CA, USA",38.049365,-122.1585777,Benicia,United States,done
4797,Belawan Channel,Sumatera North East Coast,,,,,,not_found
3638,Benin River Bar,Nigeria,,,,,,not_found
2253,BELEM,Brazil,"Belém, Portugal",38.6991685,-9.2203687,,Portugal,done
5382,Benoa,Bali,"South Kuta, Badung Regency, Bali, Indonesia",-8.7948842,115.1988563,South Kuta,Indonesia,done
638,BELFAST,Northern Ireland,"Belfast, UK",54.59728500000001,-5.93012,Belfast,United Kingdom,done
5240,Benoa Baru,Kalimantan,"Jl. Pratama, Benoa, Kuta Sel., Kabupaten Badung, Bali, Indonesia",-8.7696829,115.2215954,,Indonesia,done
2832,Belfast (Penobscot Bay),United States,"94 Searsport Ave, Belfast, ME 04915, USA",44.4318485,-68.9896412,Belfast,United States,done
1646,Benodet,France,"29950 Bénodet, France",47.875568,-4.1063729,Bénodet,France,done
2288,Belfield,Guyana,"Belfield, ND 58622, USA",46.8852906,-103.1996219,Belfield,United States,done
1467A,Bensersiel,Germany,"Bensersiel, 26427 Esens, Germany",53.6759107,7.5772915,Esens,Germany,done
2428,Belize City,Belize,"Belize City, Belize",17.5045661,-88.1962133,Belize City,Belize,done
5280,Benteng,Sulawesi West Coast,"Benteng, Benteng Sel., Benteng, Kabupaten Selayar, Sulawesi Selatan, Indonesia",-6.12258,120.465538,Benteng,Indonesia,done
8808,Bell Arm,Prince of Wales Island,"Bell Gwynn Lane, Glen Arm, MD 21057, USA",39.4530162,-76.4745958,Glen Arm,United States,done
4558,Bentinck Sound,Burma,,,,,,not_found
5955,Bell Cay,Australia East Coast,"Bluebell Way, Fort Mill, SC 29708, USA",35.0280369,-81.00239549999999,Fort Mill,United States,done
5237,Berasbasah,Kalimantan,"Beras Basah, Pangkalan Susu, Langkat Regency, North Sumatra, Indonesia",4.1238914,98.2377049,,Indonesia,done
8937,Bella Bella,Canada,"Bella Vista Way, Bella Vista, AR, USA",36.4606974,-94.24492769999999,Bella Vista,United States,done
4065,Berbera,Somalia,"Berbera, Somalia",10.4347941,45.0139904,Berbera,Somalia,done
8942,Bella Coola,Canada,"Bella Coola, BC V0T, Canada",52.3721277,-126.7539346,Bella Coola,Canada,done
1574,Berck Plage - Fort Mahon,France,"555 Avenue de la Plage, 80120 Fort-Mahon-Plage, France",50.339245,1.5632307,Fort-Mahon-Plage,France,done
3041,Belledune,Canada,"Belledune, NB, Canada",47.8859489,-65.8114779,Belledune,Canada,done
1042,Berezovyy Bar,Russia,,,,,,not_found
9147,Bellingham,United States,"Bellingham, WA, USA",48.7519112,-122.4786854,Bellingham,United States,done
1258,BERGEN,Norway,"Bergen, Norway",60.39126279999999,5.3220544,Bergen,Norway,done
3148,Belloram,Newfoundland,,,,,,not_found
2741A,Bergen Point West Reach,United States,"Bergen Point West Reach, Staten Island, NY, USA",40.6426034,-74.1326428,,United States,done
0053B,Bembridge Approaches,England,"The Duver, St Helens PO33 1YB, UK",50.695772,-1.100164,Saint Helens,United Kingdom,done
1530A,Bergse Diepsluis (West),Netherlands,,,,,,not_found
54,Bembridge Harbour,England,"The Duver, St Helens PO33 1YB, UK",50.695772,-1.100164,Saint Helens,United Kingdom,done
1156,Bergsfjord,Norway,"Bergsfjord, Norway",70.2508063,21.7907239,Bergsfjord,Norway,done
522,Berkeley,England,"Berkeley, CA 94720, USA",37.8718992,-122.2585399,Berkeley,United States,done
7159A,Biao Jiao,China,"Biaojiaozhen, Fengxiang, Baoji, Shaanxi, China",34.432199,107.505794,Baoji,China,done
2069,Berkeley Sound,Falkland Islands,"2600 Tenth Street #312, Berkeley, CA 94710, USA",37.858761,-122.290473,Berkeley,United States,done
6113,Bicheno,Tasmania,"Bicheno TAS 7215, Australia",-41.8522419,148.2596683,Bicheno,Australia,done
1137,Berlevag,Norway,"Berlevåg, Norway",70.7198284,29.0300862,,Norway,done
5455,Bicoli,Halmahera,"Bicoli, Peteley, Maba Sel., Kabupaten Halmahera Timur, Maluku Utara, Indonesia",0.591944,128.462097,Bicoli,Indonesia,done
6050,Bermagui,Australia East Coast,"Bermagui NSW 2546, Australia",-36.4433701,150.061362,Bermagui,Australia,done
2815A,Biddeford,United States,"Biddeford, ME 04005, USA",43.4925843,-70.45338439999999,Biddeford,United States,done
1698,Bermeo,Spain,"48370 Bermeo, Biscay, Spain",43.4188248,-2.7269756,Bermeo,Spain,done
540,Bideford,England,"Bideford, UK",51.016684,-4.206666,Bideford,United Kingdom,done
2569,BERMUDA (SAINT GEORGE'S ISLAND),Bermuda,"St. George's Island, Bermuda",32.3811588,-64.6821494,,Bermuda,done
6945,Bien Hoa,Vietnam,"Bien Hoa, Dong Nai, Vietnam",10.9574128,106.8426871,Bien Hoa,Vietnam,done
2568A,Bermuda Esso Pier,Bermuda,,,,,,not_found
6103,Big River Cove,Tasmania,"Big River Rd, Goshen, VA 24439, USA",38.0394103,-79.49498349999999,Goshen,United States,done
3381,Bernard Harbour,Canadian Arctic,"Bernard Harbour, Kitikmeot, Unorganized, NU, Canada",68.7653957,-114.7093159,,Canada,done
7523,Bigeumdo,Korea West Coast,,,,,,not_found
4789,Berombang,Sumatera North East Coast,"Sei Berombang, Panai Hilir, Labuhan Batu Regency, North Sumatra, Indonesia",2.6121729,100.1535196,,Indonesia,done
6786,Bikini Atoll,Marshall Islands,"Bikini Atoll, Marshall Islands",11.6065142,165.3768099,,Marshall Islands,done
3089A,Berthier-Sur-Mer,Canada,"Berthier-sur-Mer, QC, Canada",46.9260311,-70.73096199999999,Berthier-sur-Mer,Canada,done
831,Bildudalur,Iceland,"Bíldudalur, Iceland",65.6863785,-23.6006172,Bíldudalur,Iceland,done
209,Berwick,England,"Berwick, PA, USA",41.0545292,-76.23326759999999,Berwick,United States,done
2731A,Billingsport,United States,"Billingsport, Paulsboro, NJ 08066, USA",39.8484465,-75.2418496,Paulsboro,United States,done
1216A,Bessaker,Norway,"Bessaker, Norway",64.2457732,10.3268086,Bessaker,Norway,done
2605,Biloxi,United States,"Biloxi, MS, USA",30.3960318,-88.88530779999999,Biloxi,United States,done
4864,Beting Akbar,Pulau Bangka,,,,,,not_found
5395,Bima,Sumbawa,"Bima, West Nusa Tenggara, Indonesia",-8.4642661,118.7449028,Bima,Indonesia,done
4378,Betul,India West Coast,"Betul, Madhya Pradesh 460001, India",21.9108031,77.9011842,Betul,India,done
3681,Bimbia River Entrance,Cameroon,,,,,,not_found
4390,Beypore,India West Coast,"Beypore, Kerala 673015, India",11.173585,75.8040022,Beypore,India,done
4182D,Bimmah,Oman,"Bimma, Oman",22.987146,59.1357507,Bimma,Oman,done
1988,Beyrouth (Beirut),Lebanon,"Beirut, Lebanon",33.8937913,35.5017767,Beirut,Lebanon,done
5691,Bina Harbour,Solomon Islands,"Bina Harbour, Solomon Islands",-8.9511919,160.7346887,,Solomon Islands,done
4352,Bharuch,India West Coast,"Bharuch, Gujarat, India",21.7051358,72.9958748,Bharuch,India,done
1618,Binic,France,"Binic, France",48.6014849,-2.82492,Binic,France,done
4381,Bhatkal,India West Coast,"Bhatkal, Karnataka, India",13.9977623,74.54046939999999,Bhatkal,India,done
8698,Biorka Island,Baranof Island,"Biorka Island, Sitka, AK, USA",56.8529686,-135.5380178,Sitka,United States,done
4346,BHAVNAGAR,India West Coast,"Bhavnagar, Gujarat, India",21.7644725,72.15193040000001,Bhavnagar,India,done
5034,Biri Island,Philippine Islands,"Biri Island, Bayan ng Biri, Hilagang Samar, Philippines",12.6680556,124.3769444,Bayan ng Biri,Philippines,done
4464,Bhimunipatnam,India East Coast,"Bheemunipatnam, Andhra Pradesh, India",17.9075221,83.4269996,Bheemunipatnam,India,done
5057A,Bislig Bay,Philippine Islands,"Bislig Bay, Philippines",8.245532299999999,126.3823063,,Philippines,done
3561,Bissau,Guinea-Bissau,"Bissau, Guinea-Bissau",11.8816553,-15.6177942,Bissau,Guinea-Bissau,done
1416,Blavands Huk,Denmark,"17 Littlecroft Ave, Cardiff CF5 5AF, UK",51.4817425,-3.2302633,,United Kingdom,done
5321,Bitung,Sulawesi East Coast,"Bitung City, North Sulawesi, Indonesia",1.4820335,125.148879,,Indonesia,done
2065B,Bleaker Island,Falkland Islands,"Bleaker Island, FIQQ 1ZZ, Falkland Islands (Islas Malvinas)",-52.22599590000001,-58.9009831,,Falkland Islands (Islas Malvinas),done
1827,Bizerte,Tunisia,"Bizerte, Tunisia",37.2746124,9.8627243,Bizerte,Tunisia,done
6515,Bligh Sound,New Zealand South Island,"Bligh Sound, New Zealand",-44.7663361,167.4914028,,New Zealand,done
1338,Bjorn,Sweden,"Bjørn, Norway",66.0808558,12.5800837,Bjørn,Norway,done
2779,Block Island (Old Harbour),United States,"Water St, New Shoreham, RI 02807, USA",41.1729648,-71.55862499999999,New Shoreham,United States,done
1229,Bjornsund,Norway,"Bjørnsund, Fræna Municipality, Norway",62.88759999999999,6.813,,Norway,done
8908,Block Islands,Canada,"Block Island, New Shoreham, RI 02807, USA",41.1616556,-71.5842643,New Shoreham,United States,done
732,Black Ball Harbour,Ireland,,,,,,not_found
9096,Bloedel,"Canada, Vancouver Island","The Bloedel Reserve, 7571 NE Dolphin Dr, Bainbridge Island, WA 98110, USA",47.7080176,-122.5465439,Bainbridge Island,United States,done
2485,Black River,Jamaica,"Black River, NY, USA",44.0125639,-75.7943671,Black River,United States,done
1257,Blomvag,Norway,"Blomvåg, Norway",60.53178699999999,4.876269,Blomvåg,Norway,done
8427,Black Rock,Alaska,"Black Rock, AR, USA",36.108403,-91.0973473,Black Rock,United States,done
2494,Blower Rock,Jamaica,Blower Rock,17.0333333,-77.5166667,,,done
498,Black Tar,Wales,,,,,,not_found
2837,Blue Hill Harbour,United States,"57 South St, Blue Hill, ME 04614, USA",44.4046694,-68.5945155,Blue Hill,United States,done
5647,BLACKETT STRAIT,Solomon Islands,"Blackett Strait, Solomon Islands",-8.132899499999999,157.0762467,,Solomon Islands,done
2404,Bluefields Bluff,Nicaragua,"Bluefields, Osceola, MO 64776, USA",38.1117186,-93.5912314,Osceola,United States,done
445,Blackpool,England,"Blackpool, UK",53.8175053,-3.0356748,Blackpool,United Kingdom,done
2292,Bluejacket Beacon,Guyana,,,,,,not_found
694,Blacksod Quay,Ireland,,,,,,not_found
292,Bluemull Sound,Scotland,,,,,,not_found
179,Blacktoft,England,"Blacktoft, Goole DN14, UK",53.70867,-0.722814,Blacktoft,United Kingdom,done
6504,BLUFF,New Zealand South Island,"Bluff, 4052, South Africa",-29.9218618,31.0048384,Bluff,South Africa,done
9143,Blaine,United States,"Blaine, MN, USA",45.1607987,-93.23494889999999,Blaine,United States,done
204,BLYTH,England,"Blyth, UK",55.126957,-1.510277,Blyth,United Kingdom,done
0155A,Blakeney,England,"Blakeney, UK",52.953685,1.014356,Blakeney,United Kingdom,done
4602,Boat Island,Andaman Islands,"725 Acorn St, Merritt Island, FL 32952, USA",28.3446104,-80.6666717,Merritt Island,United States,done
155,Blakeney Bar,England,"Blakeney, 9824 Rea Rd, Charlotte, NC 28277, USA",35.0343118,-80.8063232,Charlotte,United States,done
8815,Boca De Quadra,Prince of Wales Island,,,,,,not_found
3120,Blanc Sablon,Canada,"Blanc-Sablon, QC, Canada",51.4264451,-57.1313148,Blanc-Sablon,Canada,done
2401,Boca Del Toro,Panama,"Bocas del Toro Province, Panama",9.416552099999999,-82.5207787,,Panama,done
5642,Blanche Harbour,Solomon Islands,"Blanche Harbor SA 5700, Australia",-32.6902611,137.7551259,Blanche Harbor,Australia,done
1197,Bodo,Norway,"Bodo, Norway",67.2803556,14.404916,Bodo,Norway,done
6198,Blanche Port,Australia South Coast,"Port la Blanche, 44300, France",47.277714,-1.525769,,France,done
7694,Bodomari,Japan Kyushu West Coast,,,,,,not_found
1563,Blankenberge,Belgium,"Blankenberge, Belgium",51.31237429999999,3.1327685,Blankenberge,Belgium,done
702,Bofin Harbour,Ireland,"Bofin Harbour, Ireland",53.61222220000001,-10.2188889,,Ireland,done
5605,Bogia,Papua New Guinea,"Bogia, Papua New Guinea",-4.2761756,144.9680673,Bogia,Papua New Guinea,done
5283,Bonerate,Sulawesi West Coast,"Bonerate, Pasimarannu, Selayar Regency, South Sulawesi, Indonesia",-7.331211499999999,121.0965637,,Indonesia,done
73,Bognor Regis,England,"Bognor Regis, UK",50.782998,-0.673061,Bognor Regis,United Kingdom,done
5093,Bongao,Sulu Archipelago,"Bongao, Tawi-Tawi, Philippines",5.1041783,119.8120795,Bongao,Philippines,done
4964,Bogo Bay,Philippine Islands,"Bogo Bay, Philippines",11.0822596,124.0140113,,Philippines,done
3299B,Bonne Island,Labrador,"Rawai, Mueang Phuket District, Phuket 83100, Thailand",7.761936,98.33461,Rawai,Thailand,done
1222,Bogoyvaer,Norway,"7282 Bogøyvær, Norway",63.9232618,8.4865552,,Norway,done
3661,Bonny River Approaches,Nigeria,,,,,,not_found
7058B,Bohe Gangqu,China,,,,,,not_found
3661A,Bonny River Bar,Nigeria,,,,,,not_found
5801A,Boigu Island,Australia,"Boigu Island, Queensland 4875, Australia",-9.2740531,142.223094,,Australia,done
3662,BONNY TOWN,Nigeria,"Bonny, Nigeria",4.4142392,7.1898025,Bonny,Nigeria,done
4747,Bojan,Riau Kepulauan,"Bojanov, Czechia",49.8413142,15.7048848,Bojanov,Czechia,done
5237A,Bontang,Kalimantan,"Bontang, Bontang City, East Kalimantan, Indonesia",0.120863,117.4800445,Bontang,Indonesia,done
7405,Boji Dao,China,,,,,,not_found
5279,Bonthain,Sulawesi West Coast,,,,,,not_found
5296,Bola,Sulawesi West Coast,"Bóly, 7754 Hungary",45.9654045,18.5166166,Bóly,Hungary,done
3589,Bonthe,Sierra Leone,"Bonthe, Sierra Leone",7.525702799999999,-12.5039922,Bonthe,Sierra Leone,done
3567,Bolama,Guinea-Bissau,"Bolama, Guinea-Bissau",11.5770712,-15.4800382,Bolama,Guinea-Bissau,done
5823,BOOBY ISLAND,Australia,"Booby Island, Queensland 4874, Australia",-10.6046333,141.9110724,,Australia,done
4962,Bolhoon,Philippine Islands,"Boljoon, Cebu, Philippines",9.6457398,123.4495644,Boljoon,Philippines,done
1546,Boom,Belgium,"2850 Boom, Belgium",51.08608,4.36633,Boom,Belgium,done
4993,Bolinao,Philippine Islands,"Bolinao, Pangasinan, Philippines",16.3425356,119.8927296,Bolinao,Philippines,done
5989A,Boonlye Point,Australia East Coast,"Boone Point, Frankfort, KY 40601, USA",38.2444341,-84.80276889999999,Frankfort,United States,done
835,Bolungavik,Iceland,"Bolungarvík, Iceland",66.1517719,-23.261709,Bolungarvík,Iceland,done
2030,Booth Island (Port Charcot),Antarctica,"Booth Island, Antarctica",-65.08,-64,,Antarctica,done
3726,Boma,Angola,"Boma, Democratic Republic of the Congo",-5.8396417,13.0702646,Boma,Democratic Republic of the Congo,done
2823,Boothbay Harbour,United States,"Boothbay Harbor, ME 04538, USA",43.8523045,-69.62810139999999,Boothbay Harbor,United States,done
1757,Bonanza,Spain,"Bonanza, OR 97623, USA",42.1987607,-121.4061076,Bonanza,United States,done
5558A,Bootless Inlet,Papua New Guinea,"Bootless Inlet, Papua New Guinea",-9.5152896,147.2649229,,Papua New Guinea,done
5565,Bonarua (Brumer) Island,Papua New Guinea,"Badila Bedda Bedda Bonarua Island, Papua New Guinea",-10.7583333,150.3819444,,Papua New Guinea,done
6583,Bora-Bora,Iles de la Societe,"Bora Bora, French Polynesia",-16.5004126,-151.7414904,,French Polynesia,done
5562,Bonarua Island,Papua New Guinea,"Bonarua Island, Papua New Guinea",-10.7574633,150.3834083,,Papua New Guinea,done
1687,Bordeaux,France,"Bordeaux, France",44.837789,-0.57918,Bordeaux,France,done
2325,Bonasse Pier,Trinidad,,,,,,not_found
4285B,Bordekhun,Iran,,,,,,not_found
0371C,Bonawe,Scotland,"Bonawe, Oban PA37, UK",56.45144,-5.230471,Bonawe,United Kingdom,done
3011,Borden,Canada,"Borden, IN 47106, USA",38.4667284,-85.9458044,Borden,United States,done
4956,Bonbonon,Philippine Islands,"Bonbonon, Siaton, Negros Oriental, Philippines",9.064373,123.114799,Siaton,Philippines,done
1832,Bordj El Hassar,Tunisia,,,,,,not_found
823,Borgarnes,Iceland,"Borgarnes, Iceland",64.5609274,-21.9010494,Borgarnes,Iceland,done
37,Bournemouth,England,"Bournemouth, UK",50.719164,-1.880769,Bournemouth,United Kingdom,done
1212,Borkamo,Norway,"Borkamo, Saltdal, Norway",66.8481573,15.3140579,,Norway,done
6930,Bouthan,Vietnam,Bhutan,27.514162,90.433601,,Bhutan,done
1472,Borkum (Fischerbalje),Germany,"An der Fischerbalje, 26757 Borkum, Germany",53.5602916,6.7453973,Borkum,Germany,done
3299A,Bouverie Islands,Labrador,"Bouverie Islands, Baffin, Unorganized, NU, Canada",69.6333333,-82.25,,Canada,done
8926,Borrowman Bay,Canada,,,,,,not_found
0015A,Bovisand Pier,England,"Plymouth PL9 0AD, UK",50.3365366,-4.1267556,,United Kingdom,done
7500,Boryeong,Korea West Coast,"Boryeong-si, Chungcheongnam-do, South Korea",36.3331629,126.6129441,Boryeong-si,South Korea,done
5932,Bowen,Australia East Coast,"Bowen, IL 62316, USA",40.23337890000001,-91.0626374,Bowen,United States,done
544,Boscastle,England,"Boscastle PL35, UK",50.68691399999999,-4.692832,Boscastle,United Kingdom,done
8869A,Bowie Seamount,Graham Island,Bowie Seamount,53.306925,-135.659231,,,done
0068B,Bosham,England,"Bosham, UK",50.829002,-0.8576779999999999,Bosham,United Kingdom,done
406,Bowling,Scotland,"15 Bowling Center Ln, Hawley, PA 18428, USA",41.488472,-75.18753199999999,Hawley,United States,done
5471,Bosnik,Papua,"Tim.,, Woniki, Biak Tim., Kabupaten Biak Numfor, Papua 98152, Indonesia",-1.170023,136.2279475,,Indonesia,done
123,Bradwell Waterside,England,"Bradwell Waterside, Southminster CM0, UK",51.7338143,0.8899517,Bradwell Waterside,United Kingdom,done
1155,Bossekop,Norway,"Bossekop, Alta, Norway",69.9602767,23.235029,Alta,Norway,done
1453,Brake,Germany,"Brake, WV 26836, USA",38.891045,-79.03620099999999,Brake,United States,done
166,BOSTON,England,"Boston, MA, USA",42.3600825,-71.0588801,Boston,United States,done
5793,Bramble Cay,Australia,"Bramble Cay, Torres Strait 4875",-9.1425,143.8761111,Torres Strait,,done
2809,"BOSTON, MA",United States,"Boston, MA, USA",42.3600825,-71.0588801,Boston,United States,done
6128,Bramble Cove,Tasmania,"Bramble Cove, Memphis, TN 38119, USA",35.0934623,-89.8437201,Memphis,United States,done
6039,BOTANY BAY,Australia East Coast,"Botany Bay, Sydney NSW, Australia",-33.9930374,151.175278,,Australia,done
0129A,Bramble Creek,England,"23031 Hayman Rd, Brooksville, FL 34602, USA",28.45477,-82.35668,Brooksville,United States,done
3185,Botwood,Newfoundland,"Botwood, NL, Canada",49.1422983,-55.3440853,Botwood,Canada,done
2727A,Brandywine Shoal Light,United States,"Brandywine Shoal, New Jersey, USA",39.0001124,-75.1162935,,United States,done
1837,Bou Grara,Tunisia,"Boughrara, Tunisia",33.5395682,10.6717519,Boughrara,Tunisia,done
3655,Brass,Nigeria,"Brass, Nigeria",4.3077728,6.245559699999999,Brass,Nigeria,done
1692,Boucau,France,"Boucau, France",43.523153,-1.4858579,Boucau,France,done
1603,BRAYE,Channel Islands,"Braye, Guernsey",49.7220807,-2.2012994,Braye,Guernsey,done
1539A,BOUDEWIJNSLUIS,Belgium,"Boudewijnsluis, 2030 Antwerpen, Belgium",51.28016,4.33053,Antwerpen,Belgium,done
5990,Breaksea Spit,Australia East Coast,"Breaksea Spit, Queensland, Australia",-24.5833333,153.25,,Australia,done
1606A,Bouley Bay,Channel Islands,"Bouley Bay JE3 5AS, Jersey",49.2384387,-2.0826451,Bouley Bay,Jersey,done
867,Breidhdalsvik,Iceland,"Breiðdalsvík, Iceland",64.7926288,-14.0079386,Breiðdalsvík,Iceland,done
1572,BOULOGNE-SUR-MER,France,"62200 Boulogne-sur-Mer, France",50.725231,1.613334,Boulogne-sur-Mer,France,done
2001,Breivika,Antarctica,"Breivika, Norway",68.74570299999999,16.5472573,Breivika,Norway,done
6355,Bountiful Island,Australia North Coast,"Bountiful Islands, Queensland, Australia",-16.6572749,139.8726465,,Australia,done
860,Brekka,Iceland,"Via Privata Lodovico Pogliaghi, 1, 20146 Milano, Italy",45.4473401,9.1438249,Milano,Italy,done
5763,Bourail,New Caledonia,"Bourail, New Caledonia",-21.5669347,165.4985521,Bourail,New Caledonia,done
1456,Bremen,Germany,"Bremen, Germany",53.07929619999999,8.8016937,Bremen,Germany,done
6211,Bremer Bay,Australia South Coast,"Bremer Bay WA 6338, Australia",-34.394,119.376,Bremer Bay,Australia,done
6000,Brisbane,Australia East Coast,"Brisbane QLD, Australia",-27.4697707,153.0251235,,Australia,done
1451,BREMERHAVEN,Germany,"Bremerhaven, Germany",53.5395845,8.5809424,Bremerhaven,Germany,done
5998,BRISBANE RIVER BAR,Australia East Coast,"Promenade Level, Riparian Plaza, 71 Eagle St, Brisbane City QLD 4000, Australia",-27.4679619,153.0308577,Brisbane City,Australia,done
9186,Bremerton,United States,"Bremerton, WA, USA",47.5650067,-122.6269768,Bremerton,United States,done
2784,Bristol,United States,"Bristol, UK",51.454513,-2.58791,Bristol,United Kingdom,done
889,Brennevinsfjorden,Svalbard,,,,,,not_found
5543,Bristow Island,Papua New Guinea,"Bristow Island, Papua New Guinea",-9.1220635,143.2503736,,Papua New Guinea,done
2074A,Brenton Loch,Falkland Islands,"Brenton Loch, FIQQ 1ZZ, Falkland Islands (Islas Malvinas)",-51.771,-59.02,,Falkland Islands (Islas Malvinas),done
0828B,Brjanslaekur,Iceland,"Brjanslaekur, Iceland",65.530131,-23.190396,,Iceland,done
9069,Brentwood Bay,"Canada, Vancouver Island","Brentwood Bay, BC, Canada",48.5724366,-123.4517571,Brentwood Bay,Canada,done
2988,Broad Cove Marsh,Canada,"Broad Cove Marsh, NS B0E, Canada",46.3,-61.25000000000001,Broad Cove Marsh,Canada,done
1638,BREST,France,"Brest, France",48.390394,-4.486076,Brest,France,done
341,Broadford Bay,Scotland,"Broadford, Magnolia, TX 77355, USA",30.1162958,-95.66262809999999,Magnolia,United States,done
3311,Brevoort Harbour,Canadian Arctic,"Brevoort Island, Baffin, Unorganized, NU, Canada",63.4626332,-64.2982379,,Canada,done
0102A,Broadstairs,England,"Broadstairs, UK",51.360163,1.432038,Broadstairs,United Kingdom,done
5997,Bribie,Australia East Coast,"Bribie Island, Queensland 4507, Australia",-26.9861003,153.1325243,,Australia,done
408,Brodick Bay,Scotland,"Brodick Bay, United Kingdom",55.58734279999999,-5.139787999999999,,United Kingdom,done
2772,Bridgeport,United States,"Bridgeport, CT, USA",41.1865478,-73.19517669999999,Bridgeport,United States,done
1211A,Bronnoysund,Norway,"Brønnøysund, Norway",65.4735577,12.2077354,Brønnøysund,Norway,done
2437,BRIDGETOWN,Windward Islands,"Bridgetown, Barbados",13.0968511,-59.61448189999999,Bridgetown,Barbados,done
6265,Broome,Australia North Coast,"Broome County, NY, USA",42.1791865,-75.8533954,,United States,done
2927,Bridgewater,Canada,"Bridgewater, MA 02324, USA",41.9903519,-70.9750541,Bridgewater,United States,done
0176A,Brough,England,"Brough HU15, UK",53.729988,-0.5732149999999999,Brough,United Kingdom,done
529,Bridgwater,England,"Bridgwater, UK",51.127889,-3.003632,Bridgwater,United Kingdom,done
3313A,Broughton Island,Canadian Arctic,"Broughton Island, New South Wales, Australia",-32.6157855,152.3139827,,Australia,done
181,Bridlington,England,"Bridlington, UK",54.08535,-0.198802,Bridlington,United Kingdom,done
6027,"Broughton Island, Australia",Australia East Coast,"Broughton Island, New South Wales, Australia",-32.6157855,152.3139827,,Australia,done
29,Bridport (West Bay),England,"West Bay, UK",50.711711,-2.7636358,West Bay,United Kingdom,done
1522,Brouwershavensche Gat,Netherlands,,,,,,not_found
126,Brightlingsea,England,"Brightlingsea, UK",51.816142,1.021399,Brightlingsea,United Kingdom,done
9012,Brown Bay,Canada,"Brown's Bay Resort, 15021 Brown's Bay Rd, Campbell River, BC V9H 1N9, Canada",50.16180199999999,-125.376878,Campbell River,Canada,done
6159,Brighton (S.Australia),Australia South Coast,"South Brighton SA 5048, Australia",-35.024514,138.523564,South Brighton,Australia,done
6290,Browse Island,Australia North Coast,"Browse Island, Australia",-14.109421,123.5483078,,Australia,done
82,Brighton Marina,England,"Brighton Marina, Brighton, UK",50.8120712,-0.09854489999999999,Brighton,United Kingdom,done
6520,Bruce Bay,New Zealand South Island,"Bruce Bay 7886, New Zealand",-43.6375704,169.5983949,Bruce Bay,New Zealand,done
1631A,Brignogan,France,"29890 Brignogan-Plages, France",48.664062,-4.326471,Brignogan-Plages,France,done
380,Bruichladdich,Scotland,"Bruichladdich, Isle of Islay PA49, UK",55.7656877,-6.3619999,Bruichladdich,United Kingdom,done
1886,BRINDISI,Italy,"72100 Brindisi, Province of Brindisi, Italy",40.6327278,17.9417616,Brindisi,Italy,done
1439,BRUNSBUTTEL MOLE 1,Germany,"Zur Mole 1, 25541 Brunsbüttel, Germany",53.893432,9.130141799999999,Brunsbüttel,Germany,done
2657,Brunswick,United States,"Brunswick, ME 04011, USA",43.9140162,-69.9669961,Brunswick,United States,done
8363,Bukhta Glubokaya,Siberia,,,,,,not_found
6008,Brunswick Heads,Australia East Coast,"Brunswick Heads NSW 2483, Australia",-28.5557919,153.5436394,Brunswick Heads,Australia,done
8359,Bukhta Lavrova,Siberia,,,,,,not_found
5686,Buala (Maringe Lagoon),Solomon Islands,Solomon Islands,-8.1406108,159.5885094,,Solomon Islands,done
8319,Bukhta Matuga,Siberia,,,,,,not_found
3568,Bubaque,Guinea-Bissau,"Bubaque, Guinea-Bissau",11.2987384,-15.8378366,Bubaque,Guinea-Bissau,done
8224,Bukhta Morovinova,Sakhalin East Coast,,,,,,not_found
3597,Buchanan,Liberia,"Buchanan, VA 24066, USA",37.5273566,-79.67976139999999,Buchanan,United States,done
8342,Bukhta Morzhovaya,Siberia,"bukhta Morzhovaya, Russia, 683041",53.2725991,159.9565592,,Russia,done
248,Buckie,Scotland,"Buckie AB56, UK",57.67739199999999,-2.967311,Buckie,United Kingdom,done
8157,Bukhta Nakhodka,Siberia,"bukhta Nakhodka, Russia",42.8032256,132.8953988,,Russia,done
42,Bucklers Hard,England,"Bucklers Hard, Brockenhurst SO42, UK",50.797686,-1.42428,Bucklers Hard,United Kingdom,done
1109,Bukhta Nasha,Russia,,,,,,not_found
865,Budareyri,Iceland,"Reyðarfjörður, Iceland",65.0354339,-14.2159928,Reyðarfjörður,Iceland,done
1111,Bukhta Ozerko,Russia,,,,,,not_found
543,Bude,England,"Bude EX23, UK",50.826636,-4.543678,Bude,United Kingdom,done
8285,Bukhta Pamyatnaya,Kuril Islands,,,,,,not_found
9507,Buenaventura,Colombia,"Buenaventura, Valle del Cauca, Colombia",3.890551,-77.078864,,Colombia,done
8289,Bukhta Shelikhova,Kuril Islands,"Shelihov Bay, Russia, 694550",50.3822808,155.6219677,,Russia,done
2165,BUENOS AIRES,Argentina,"Buenos Aires, Autonomous City of Buenos Aires, Argentina",-34.6036844,-58.3815591,Buenos Aires,Argentina,done
8377,Bukhta Slavyanka (Reyd Plover),Siberia,,,,,,not_found
5945,Bugatti Reef,Australia East Coast,"Bugatti Reef, Whitsundays 4802, Australia",-20.1005119,150.3174591,Whitsundays,Australia,done
8160,Bukhta Sokolovskaya,Siberia,,,,,,not_found
1025,Bugrino,Russia,"Bugrino, Russia, 166721",68.783056,49.303611,Bugrino,Russia,done
912,Bukhta Teplits,Franz Josef Land,,,,,,not_found
3660,Buguma,Nigeria,"Buguma, Nigeria",4.7402943,6.8619045,Buguma,Nigeria,done
911,Bukhta Tikhaya,Franz Josef Land,"Bukhta Tikhaya, Vladivostok, Primorskiy kray, Russia, 690080",43.091292,131.970187,Vladivostok,Russia,done
1216,Buholmrasa Light,Norway,,,,,,not_found
8174,BUKHTA VANINO,Siberia,,,,,,not_found
7515,Bukgang Sudo,Korea West Coast,,,,,,not_found
1013,Bukhta Varneka,Russia,,,,,,not_found
4199B,Bukha,Oman,"Bukhā, Oman",26.1407713,56.1532893,Bukhā,Oman,done
4716,Bukom,Singapore,"Bük, Hungary",47.383876,16.7616288,Bük,Hungary,done
8297,Bukhta Abrek,Siberia,"bukhta Abrek, Russia",42.92830379999999,132.411834,,Russia,done
5082,Bulan Island,Sulu Archipelago,"Bulan Island, Bulang, Batam City, Riau Islands, Indonesia",0.9811507,103.902799,,Indonesia,done
985,Bukhta Dikson,Russia,,,,,,not_found
662,Bulbinbeg,Ireland,,,,,,not_found
8373,Bukhta Engaugin,Siberia,,,,,,not_found
5379,Buleleng,Bali,"Buleleng Regency, Bali, Indonesia",-8.2238968,114.9516869,,Indonesia,done
5454,Buli,Halmahera,"Bhuli, Madhya Pradesh, India",21.5913706,78.59731,Bhuli,India,done
158,Burnham (Overy Staithe),England,"Burnham Overy Staithe, King's Lynn PE31, UK",52.963583,0.74417,Burnham Overy Staithe,United Kingdom,done
3170,Bull Island,Newfoundland,"Bull Island, Avenue Range SA 5273, Australia",-36.95,140.18,Avenue Range,Australia,done
122,BURNHAM-ON-CROUCH,England,"Burnham-on-Crouch, UK",51.628347,0.814539,Burnham-on-Crouch,United Kingdom,done
0171A,Bull Sand Fort,England,United Kingdom,53.53463259999999,0.0341392,,United Kingdom,done
528,Burnham-On-Sea,England,"Burnham-on-Sea, UK",51.240139,-2.993858,Burnham-on-Sea,United Kingdom,done
6219,Bunbury,Australia South Coast,"Bunbury WA 6230, Australia",-33.325636,115.6396494,Bunbury,Australia,done
6091,Burnie (Emu Bay),Tasmania,"5 Alexander St, Burnie TAS 7320, Australia",-41.049608,145.904359,Burnie,Australia,done
5982,Bundaberg (Burnett Heads),Australia East Coast,"Burnett Heads QLD 4670, Australia",-24.7769149,152.4042539,Burnett Heads,Australia,done
2891,Burntcoat Head,Canada,"Burntcoat Head Park, 611 Burntcoat Head Road, Noel, NS B0N 2C0, Canada",45.3044228,-63.79325590000001,Noel,Canada,done
6006,Bundall,Australia East Coast,"Bundall QLD 4217, Australia",-28.012,153.405,Bundall,Australia,done
230,Burntisland,Scotland,"Burntisland KY3, UK",56.058809,-3.233915,Burntisland,United Kingdom,done
361,Bunessan,Scotland,"Bunessan, Isle of Mull PA67, UK",56.315101,-6.235297,Bunessan,United Kingdom,done
8274,Burotan Wan,Kuril Islands,,,,,,not_found
5305,Bungku,Sulawesi East Coast,"Bungku, Bajubang, Batang Hari Regency, Jambi, Indonesia",-2.0492191,103.3125299,,Indonesia,done
291,Burra Firth,Scotland,"Burrafirth, Shetland ZE2, UK",60.800882,-0.879249,Burrafirth,United Kingdom,done
3543,Buniada Point,The Gambia,,,,,,not_found
290,Burra Voe (Yell Sound),Scotland,"Burravoe, Shetland ZE2, UK",60.49937000000001,-1.05559,Burravoe,United Kingdom,done
5252,Bunyu,Kalimantan,"Bunyu, Bulungan Regency, North Kalimantan, Indonesia",3.5104911,117.8076959,,Indonesia,done
271,Burray Ness,Scotland,,,,,,not_found
0282A,Bur Wick,Scotland,"Burwick, Orkney KW17, UK",58.74188280000001,-2.9716287,Burwick,United Kingdom,done
8809,Burroughs Bay,Prince of Wales Island,"Burroughs, Irvine, CA 92618, USA",33.6378753,-117.7175055,Irvine,United States,done
5023,Burdeos Bay,Philippine Islands,"Burdeos Bay, Philippines",14.798731,122.0610174,,Philippines,done
505,Burry Port,Wales,"Burry Port, UK",51.683466,-4.2561,Burry Port,United Kingdom,done
1713A,Burela,Spain,"27880 Burela, Lugo, Spain",43.6602954,-7.3611092,Burela,Spain,done
0063B,Bursledon,England,"Bursledon, Southampton SO31, UK",50.889885,-1.3093472,Bursledon,United Kingdom,done
6321,Burge Point,Australia North Coast,"Burge, Kewanee, MO 63860, USA",36.6696364,-89.5738166,Kewanee,United States,done
177,Burton Stather,England,"Burton upon Stather, Scunthorpe DN15, UK",53.649532,-0.684465,Burton upon Stather,United Kingdom,done
6396,Burgess Island (Pokohinu),New Zealand North Island,,,,,,not_found
682,Burtonport,Ireland,"Burtonport, Co. Donegal, Ireland",54.9845286,-8.4326581,Burtonport,Ireland,done
250,Burghead,Scotland,"Burghead, UK",57.700232,-3.489213,Burghead,United Kingdom,done
8231,Buruny,Sakhalin East Coast,Burundi,-3.373056,29.918886,,Burundi,done
4478,Burhabalang River Entrance,India East Coast,"Budhabalanga River, Odisha",21.504931,86.994124,,India,done
3651,Burutu,Nigeria,"Burutu, Nigeria",5.3509707,5.5066242,Burutu,Nigeria,done
3153,Burin,Newfoundland,"Burin, NL, Canada",47.0531673,-55.1740736,Burin,Canada,done
7566,Busan,Korea West Coast,"Busan, South Korea",35.1795543,129.0756416,Busan,South Korea,done
2732B,Burlington,United States,"Burlington, VT, USA",44.4758825,-73.21207199999999,Burlington,United States,done
4283,BUSHEHR,Iran,"Bandar Bushehr, Bushehr Province, Iran",28.9233837,50.820314,Bandar Bushehr,Iran,done
8877,Burnaby Island (Section Cove),Moresby Island,,,,,,not_found
5019,Busok Busok,Philippine Islands,"Heidestraat 61b, 6114 AE Susteren, Netherlands",51.0682313,5.8717888,Susteren,Netherlands,done
6218,Busselton,Australia South Coast,"Busselton WA 6280, Australia",-33.6554927,115.3500188,Busselton,Australia,done
9533,Cabo Pasado,Ecuador,"Troncal del Pacífico, Ecuador",-0.369414,-80.4726219,,Ecuador,done
1436,Busum,Germany,"Büsum, Germany",54.1346218,8.858591299999999,Büsum,Germany,done
9833,Cabo Pilar,Chile,"nº27 - R. Aprígio Martins - Praia dos Anjos, Arraial do Cabo - RJ, 28930-000, Brazil",-22.970418,-42.02282,,Brazil,done
4974,Butag Bay,Philippine Islands,,,,,,not_found
9895,Cabo Posesion,Chile,"San Gregorio, Región de Magallanes y de la Antártica Chilena, Chile",-52.28741549999999,-68.96804,San Gregorio,Chile,done
6761,Butaritari (Makin),Kiribati,"Butaritari Atoll, Kiribati",3.1166667,172.8,,Kiribati,done
2157,Cabo San Antonio,Argentina,"Las Tumbas, Cuba",21.8985413,-84.93614610000002,Las Tumbas,Cuba,done
8924,Butedale,Canada,"Butedale, BC V0T, Canada",53.15,-128.7,Butedale,Canada,done
9395,CABO SAN LUCAS,Mexico,"Cabo San Lucas, Baja California Sur, Mexico",22.8905327,-109.9167371,Cabo San Lucas,Mexico,done
4663A,Butterworth Wharves,Peninsular Malaysia West Coast,"12100, Dermaga Dalam, George Town, Malaysia",5.3885147,100.365249,George Town,Malaysia,done
9887,Cabo San Simon,Chile,"Paseo de los Marinos 31, El Chamizal, 23429 Cabo San Lucas, B.C.S., Mexico",22.9013079,-109.9261066,Cabo San Lucas,Mexico,done
3244,Button Islands,Labrador,"Button Islands, Baffin, Unorganized, NU, Canada",60.6339874,-64.67227919999999,,Canada,done
1765,Cabo Trafalgar,Spain,"Cape Trafalgar, 11159, C��diz, Spain",36.1886033,-6.0321884,,Spain,done
4032,Buur Gaabo,Somalia,"Buur Hakaba, Somalia",2.7991084,44.0793911,Buur Hakaba,Somalia,done
2100,Cabo Virgenes,Argentina,"Cabo Virgenes, Santa Cruz Province, Argentina",-52.3275,-68.3516667,,Argentina,done
5263,Bwool,Sulawesi North Coast,,,,,,not_found
3216,Cabot Point,Labrador,"3001 W Main St, Cabot, AR 72023, USA",34.9848311,-92.0519262,Cabot,United States,done
3341,Byam Martin Island,Canadian Arctic,"Byam Martin Island, Baffin, Unorganized, NU, Canada",75.23421619999999,-104.2138171,,Canada,done
6334A,Cache Point,Australia North Coast,"Cache Point, Tiwi Islands NT 0822, Australia",-11.4940527,130.9815423,Tiwi Islands,Australia,done
7531,Byeokpajin,Korea West Coast,,,,,,not_found
3557,Cacheu,Guinea-Bissau,"Cacheu, Guinea-Bissau",12.2732631,-16.1669156,Cacheu,Guinea-Bissau,done
2231,CABEDELO,Brazil,"Cabedelo - Jacaré, Cabedelo - PB, Brazil",-6.987721499999999,-34.8287221,Cabedelo,Brazil,done
3569,Cacine,Guinea-Bissau,"Cacine, Guinea-Bissau",11.1219967,-14.9622498,,Guinea-Bissau,done
2111,Cabo Blanco,Argentina,"Cabo Blanco, Corpus Christi, TX 78418, USA",27.5839501,-97.22841269999999,Corpus Christi,United States,done
4040,Cadale (Itala),Somalia,"12043 Canale CN, Italy",44.7979738,7.9995993,Canale,Italy,done
3524,Cabo Bojador,Western Sahara,"Cabo Bojador, 07080 Ciudad de México, CDMX, Mexico",19.4978735,-99.0985281,Ciudad de México,Mexico,done
6344B,Cadell Strait,Australia North Coast,"Cadell Strait, East Arnhem NT 0822, Australia",-12,135.75,East Arnhem,Australia,done
2263,Cabo Cassipore,Brazil,"Cabo Cacipore, Brazil",3.9166667,-51.1166667,,Brazil,done
1763,CADIZ,Spain,"Cádiz, Spain",36.5270612,-6.2885962,Cádiz,Spain,done
2433,Cabo Catoche,Mexico (Caribbean),"Cabo Catoche, Quintana Roo, Mexico",21.6047222,-87.10305559999999,,Mexico,done
4952,Cadiz (Philippines),Philippine Islands,"Cadiz City, Negros Occidental, Philippines",10.8060057,123.213851,Cadiz City,Philippines,done
2204A,Cabo De Sao Tome,Brazil,"Cabo de Sao Tome, Campos dos Goitacazes - RJ, Brazil",-21.9833333,-40.9833333,,Brazil,done
1548,Cadzand (Wielingen Sluis),Belgium,"Kanaalweg 1, 4506 KN Cadzand, Netherlands",51.3767293,3.3811287,Cadzand,Netherlands,done
2202,Cabo Frio,Brazil,"Cabo Frio - State of Rio de Janeiro, Brazil",-22.8867507,-42.0262542,,Brazil,done
475,Caernarfon,Wales,"Caernarfon, UK",53.139551,-4.273911,Caernarfon,United Kingdom,done
9911,Cabo Gloucester,Chile,"Cabo Dr, Gloucester, MA 01930, USA",42.620208,-70.641412,Gloucester,United States,done
5075,Cagayan De Oro,Philippine Islands,"Cagayan de Oro, Misamis Oriental, Philippines",8.4542363,124.6318977,Cagayan de Oro,Philippines,done
2412,Cabo Gracias A Dios,Nicaragua,"Cabo Gracias a Dios, Honduras",15,-83.14999999999999,,Honduras,done
1801,CAGLIARI,Sardinia,"Cagliari, Province of Cagliari, Italy",39.2239017,9.1220945,,Italy,done
6928,Caibe,Vietnam,"Cái Bè District, Tien Giang, Vietnam",10.3718873,105.9464874,,Vietnam,done
9938,Caleta Doris,Chile,"Doris, Beasley, TX 77417, USA",29.4721212,-95.9704249,Beasley,United States,done
5857,Cairncross Island,Australia East Coast,,,,,,not_found
9761,Caleta Hale,Chile,"Hale, De Soto, MO 63020, USA",38.0865151,-90.57715259999999,De Soto,United States,done
5906,Cairns,Australia East Coast,"Cairns QLD, Australia",-16.9185514,145.7780548,,Australia,done
9519,Caleta Iguana,Ecuador,"Antonio Gil, Puerto Villamil, Ecuador",-0.956683,-90.969417,Puerto Villamil,Ecuador,done
143,Caister-On-Sea,England,"Caister-on-Sea, Great Yarmouth NR30, UK",52.6486469,1.724422,Caister-on-Sea,United Kingdom,done
9597,Caleta Junin,Chile,"Caleta Junin, Huara, Región de Tarapacá, Chile",-19.6667,-70.16669999999999,Caleta Junin,Chile,done
3673,Calabar,Nigeria,"Calabar, Nigeria",4.9757165,8.3417006,Calabar,Nigeria,done
9667,Caleta La Hacienda,Chile,"La Hacienda, San Antonio, TX 78237, USA",29.4394311,-98.57046779999999,San Antonio,United States,done
3668,Calabar River No. 2 Buoy,Nigeria,,,,,,not_found
2098,Caleta La Mision,Argentina,"Caleta La Mision, Río Grande, Tierra del Fuego, Argentina",-53.80312379999999,-67.7551519,Río Grande,Argentina,done
1570,CALAIS,France,"Calais, France",50.95129000000001,1.858686,Calais,France,done
9757,Caleta Laguera,Chile,"W Calle La Guerra, Camarillo, CA 93010, USA",34.226199,-119.0710918,Camarillo,United States,done
4811,Calang,Sumatera South West Coast,"Calang, Bahagia, Krueng Sabee, Aceh Jaya Regency, Aceh, Indonesia",4.6338186,95.5818123,Calang,Indonesia,done
9987,Caleta Las Casas,Chile,"Calle Sagitario 234, Conchas Chinas, 48390 Puerto Vallarta, Jal., Mexico",20.5913174,-105.2437768,Puerto Vallarta,Mexico,done
4938,Calapan,Philippine Islands,"Calapan, Oriental Mindoro, Philippines",13.3770935,121.1645706,Calapan,Philippines,done
2119,Caleta Leones,Argentina,,,,,,not_found
2593,Calcasieu Pass,United States,"Calcasieu Pass, Cameron, LA 70631, USA",29.7952214,-93.32737580000001,Cameron,United States,done
9601,Caleta Lobos,Chile,"Caleta Lobos, Iquique, Región de Tarapacá, Chile",-21.0217963,-70.17418409999999,Caleta Lobos,Chile,done
9521,Caleta Aeolian,Ecuador,,,,,,not_found
9675,Caleta Mansa,Chile,,,,,,not_found
9624,Caleta Barranquillas,Chile,"Barranquilla, Copiapó, III Región, Chile",-27.3574719,-70.3172633,Copiapó,Chile,done
9989,Caleta Middle,Chile,,,,,,not_found
9612,Caleta Blanco Encalada,Chile,"Blanco Encalada, Antofagasta, Región de Antofagasta, Chile",-23.6350156,-70.389004,Antofagasta,Chile,done
9851,Caleta Notch,Chile,"Notch, North Port, FL 34288, USA",27.0402645,-82.10301059999999,North Port,United States,done
2086,Caleta Brent,Argentina,"Brent, Kingsland, TX 78639, USA",30.6584467,-98.4638241,Kingsland,United States,done
9854,Caleta Ocasion,Chile,,,,,,not_found
2120,Caleta Carolina,Argentina,"Carolina, Bristow, IN 47515, USA",38.1749334,-86.7186871,Bristow,United States,done
9638,Caleta Oscuro,Chile,"Caleta Oscuro, Puente Alto, Región Metropolitana, Chile",-33.5951932,-70.5675381,Puente Alto,Chile,done
9752,Caleta Chica,Chile,"Caleta Chica, Puente Alto, Región Metropolitana, Chile",-33.5980109,-70.5621428,Puente Alto,Chile,done
9742,Caleta Pascuas,Chile,,,,,,not_found
9879,Caleta Clarencia,Chile,"Caleta Clarencia, Primavera, Región de Magallanes y de la Antártica Chilena, Chile",-52.9,-70.1,Caleta Clarencia,Chile,done
9879A,Caleta Percy,Chile,"Percy, Hamlin, ME 04785, USA",47.08642680000001,-67.857007,Hamlin,United States,done
9815,Caleta Columbine,Chile,"Columbine, Casper, WY 82604, USA",42.8141299,-106.4075172,Casper,United States,done
9670,Caleta Queule,Chile,"Caleta Queule, La Florida, Región Metropolitana, Chile",-33.5454946,-70.5935559,La Florida,Chile,done
9974,Caleta Coralie,Chile,,,,,,not_found
9588,Caleta Quilca,Peru,"Islay, Peru",-16.82483,-72.295521,,Peru,done
2137,Caleta De Los Loros,Argentina,"Caleta de los Loros, Río Negro, Argentina",-40.8002032,-65.0771084,,Argentina,done
9682,Caleta Quintil,Chile,,,,,,not_found
9853,Caleta Real,Chile,"Calle Huertos, 3, 13004 Ciudad Real, Cdad. Real, Spain",38.987091,-3.926640999999999,Ciudad Real,Spain,done
6330,Camp Point,Australia North Coast,"Camp Point, IL 62320, USA",40.0392139,-91.0693041,Camp Point,United States,done
9994,Caleta San Martin,Chile,"Calle San Martin, San Benito, TX 78586, USA",26.0570501,-97.64624189999999,San Benito,United States,done
6532,Campbell Island (Motu Ihupuku),New Zealand South Island,"Campbell Island, New Zealand",-52.5162544,169.1552342,,New Zealand,done
2094,Caleta San Pablo,Argentina,"Caleta San Pablo, Negritos, Peru",-4.666693,-81.31037069999999,Negritos,Peru,done
9094,Campbell River,"Canada, Vancouver Island","Campbell River, BC, Canada",50.03312260000001,-125.2733354,Campbell River,Canada,done
9632,Caleta Totoralillo,Chile,"Caleta Totoralillo, Los Vilos, Región de Coquimbo, Chile",-32.0328004,-71.51881329999999,Caleta Totoralillo,Chile,done
